pc_elapsed_s,pc_unix_s,frame_index,roll_deg,pitch_deg,yaw_deg,altitude_m,accel_x_g,accel_y_g,accel_z_g,gyro_x_dps,gyro_y_dps,gyro_z_dps,fc_time_s,imu_irq_hz,imu_poll_hz,imu_age_ms,roll_acc_deg,pitch_acc_deg,roll_gyro_deg,pitch_gyro_deg,roll_residual_deg,pitch_residual_deg,attitude_cf_alpha,attitude_dt_ms,coax_roll_rate_kd,coax_pitch_rate_kd,coax_yaw_angle_kp,coax_yaw_rate_kd,coax_vel_x_kd,coax_vel_y_kd,coax_vel_z_kd,coax_accel_xy_limit_m_s2,coax_accel_z_limit_m_s2,nav_acc_x_m_s2,nav_acc_y_m_s2,nav_acc_z_m_s2,vel_est_x_m_s,vel_est_y_m_s,vel_ref_x_m_s,vel_ref_y_m_s,vel_err_x_m_s,vel_err_y_m_s,vel_pid_out_x_m_s2,vel_pid_out_y_m_s2,vel_pid_p_x_m_s2,vel_pid_i_x_m_s2,vel_pid_d_x_m_s2,vel_pid_p_y_m_s2,vel_pid_i_y_m_s2,vel_pid_d_y_m_s2,servo_alpha_us,servo_beta_us,motor_upper_us,motor_lower_us,vel_loop_x_kp,vel_loop_y_kp,vel_loop_output_limit_m_s2,vel_loop_x_ki,vel_loop_y_ki,vel_loop_i_limit_m_s2,vel_loop_x_kd,vel_loop_y_kd,vel_loop_enable,flow_raw_vx_m_s,flow_raw_vy_m_s
0.134349,1783676942.661376,1,-3.01264882,-2.80241728,6.02291393,0,0.0487768054,0.00453020027,0.994030297,0.00711237313,0.00100934203,-0.018184064,66.4250031,991.72229,0,0.588,0.261118352,2.80920672,0.276738226,2.80976415,-0.015619874,-0.000557422638,0.995984197,1.00800002,-2.41000009,-2.5999999,-3,-0.200000003,0,0,3.0999999,3,2.5,9.86248269e-05,1.61781918e-06,-3.06701659e-05,-1.68711467e-05,1.69721916e-05,0,0,0.30779016,-0.465418607,1.49586022,-2.21955037,1.49586022,0,-0,-2.2340095,0.0144590661,0,1515,1875,1510,1316,4.86000013,-4.80000019,21.6700001,0,0.0199999996,0.540000021,0,0,1,-0.000212132014,0.000212132014
0.197654,1783676942.724681,2,-3.01301742,-2.80650115,6.02208519,0,0.0485175215,0.00490710279,0.993741214,0.00158195943,-0.0142654739,-0.0216466449,66.4750061,991.72229,0,0.168000013,0.282924771,2.79510379,0.276280165,2.80572081,0.00664460659,-0.0106170177,0.995984197,1.00800002,-2.41000009,-2.5999999,-3,-0.200000003,0,0,3.0999999,3,2.5,0.000218167319,-5.21175571e-05,0.000175266279,1.71904721e-05,1.69180257e-05,0,0,0.30779016,-0.465418607,1.49586022,-2.21955037,1.49586022,0,-0,-2.2340095,0.0144590661,0,1515,1875,1510,1316,4.86000013,-4.80000019,21.6700001,0,0.0199999996,0.540000021,0,0,1,0.000212132014,0.000212132014
0.259439,1783676942.786466,3,-3.01209235,-2.81389093,6.02173424,0,0.0481499657,0.00506422622,0.994826913,-0.0272737145,-0.00918515772,-0.0357066467,66.5250015,991.72229,0,0.761000037,0.291665107,2.77093744,0.277173787,2.79839873,0.0144913197,-0.0274612904,0.995984197,1.00800002,-2.41000009,-2.5999999,-3,-0.200000003,0,0,3.0999999,3,2.5,-0.000101770165,-7.41436379e-05,-2.76374831e-05,-1.02584323e-07,-3.40158549e-05,0,0,0.30779016,-0.465418607,1.49586022,-2.21955037,1.49586022,0,-0,-2.2340095,0.0144590661,0,1515,1875,1510,1316,4.86000013,-4.80000019,21.6700001,0,0.0199999996,0.540000021,0,0,1,-0,-0.000424264028
0.320718,1783676942.847745,4,-3.0083971,-2.81518888,6.0208559,0,0.0488829203,0.00472136308,0.994406283,-0.0430731401,-0.116335206,-0.0139010372,66.5750046,991.69458,0,0.330000013,0.272033811,2.81424284,0.280962139,2.79692245,-0.00892832875,0.0173203945,0.996083379,0.98300004,-2.41000009,-2.5999999,-3,-0.200000003,0,0,3.0999999,3,2.5,-3.54713229e-05,9.02344327e-05,-4.96101384e-05,-3.48683109e-08,8.87004532e-08,0,0,0.30779016,-0.465418607,1.49586022,-2.21955037,1.49586022,0,-0,-2.2340095,0.0144590661,0,1515,1875,1510,1316,4.86000013,-4.80000019,21.6700001,0,0.0199999996,0.540000021,0,0,1,-0,-0
0.352413,1783676942.879441,5,-3.00988722,-2.82034945,6.02041531,0,0.0483007506,0.00493792631,0.994963467,-0.0304698534,-0.00901751034,0.00373549201,66.625,991.69458,0,0.088000007,0.284352154,2.77922201,0.279417366,2.79188061,0.00493478775,-0.012658596,0.995984197,1.00800002,-2.41000009,-2.5999999,-3,-0.200000003,0,0,3.0999999,3,2.5,0,0,0,1.697056e-05,-1.697056e-05,0,0,0.30779016,-0.465418607,1.49586022,-2.21955037,1.49586022,0,-0,-2.2340095,0.0144590661,0,1515,1875,1510,1316,4.86000013,-4.80000019,21.6700001,0,0.0199999996,0.540000021,0,0,1,0.000212132014,-0.000212132014
0.415392,1783676942.942420,6,-3.00908327,-2.8188684,6.01932144,0,0.0489790738,0.00485497061,0.994163513,-0.0291917864,-0.0179032162,-0.0097067114,66.6750031,991.69458,0,0.526000023,0.279800177,2.82045507,0.280242652,2.79320145,-0.00044247508,0.0272536278,0.995984197,1.00800002,-2.41000009,-2.5999999,-3,-0.200000003,0,0,3.0999999,3,2.5,2.91520373e-05,-3.05577378e-05,0.000109462744,2.93852533e-08,-3.08021981e-08,0,0,0.30779016,-0.465418607,1.49586022,-2.21955037,1.49586022,0,-0,-2.2340095,0.0144590661,0,1515,1875,1510,1316,4.86000013,-4.80000019,21.6700001,0,0.0199999996,0.540000021,0,0,1,-0,-0
0.523908,1783676943.050935,7,-3.01061678,-2.81740046,6.01877975,0,0.0477097146,0.0041848328,0.994703889,-0.0289137959,-0.0023672164,-0.00338258967,66.7250061,991.69458,0,0.0980000049,0.241048485,2.74599099,0.278859347,2.79497552,-0.0378108621,-0.0489845276,0.995984197,1.00800002,-2.41000009,-2.5999999,-3,-0.200000003,0,0,3.0999999,3,2.5,1.53779984e-05,-7.70308106e-05,-6.29425085e-06,-1.69550585e-05,-1.70482072e-05,0,0,0.30779016,-0.465418607,1.49586022,-2.21955037,1.49586022,0,-0,-2.2340095,0.0144590661,0,1515,1875,1510,1316,4.86000013,-4.80000019,21.6700001,0,0.0199999996,0.540000021,0,0,1,-0.000212132014,-0.000212132014
0.554626,1783676943.081654,8,-3.00816727,-2.83171725,6.01846886,0,0.0483372323,0.00543962093,0.994426489,0.00348426774,0.0076649338,0.00934126414,66.7750015,991.69458,0,0.697000027,0.313411027,2.78280997,0.281026781,2.78045249,0.0323842466,0.00235748291,0.995980263,1.00899994,-2.41000009,-2.5999999,-3,-0.200000003,0,0,3.0999999,3,2.5,3.56698038e-05,2.16087701e-05,-0.000105457308,1.70065505e-05,-1.69487575e-05,0,0,0.30779016,-0.465418607,1.49586022,-2.21955037,1.49586022,0,-0,-2.2340095,0.0144590661,0,1515,1875,1510,1316,4.86000013,-4.80000019,21.6700001,0,0.0199999996,0.540000021,0,0,1,0.000212132014,-0.000212132014
0.617410,1783676943.144438,9,-3.00851226,-2.83272767,6.0179615,0,0.0478292517,0.00524576381,0.994601429,-0.00249571307,-0.0327961966,0.0297740679,66.8250046,991.710449,0,0.254000008,0.302188724,2.75312972,0.280725867,2.7795577,0.0214628577,-0.0264279842,0.995984197,1.00800002,-2.41000009,-2.5999999,-3,-0.200000003,0,0,3.0999999,3,2.5,-9.12469695e-05,2.65350955e-05,1.51062013e-05,-9.19769434e-08,2.67473759e-08,0,0,0.30779016,-0.465418607,1.49586022,-2.21955037,1.49586022,0,-0,-2.2340095,0.0144590661,0,1515,1875,1510,1316,4.86000013,-4.80000019,21.6700001,0,0.0199999996,0.540000021,0,0,1,-0,-0
0.679005,1783676943.206032,10,-3.00684333,-2.83910203,6.01724148,0,0.0482492521,0.00419321656,0.993966699,-0.00430366909,0.0069244625,0.0155921103,66.875,991.710449,0,0.869000018,0.241710499,2.7790525,0.282645315,2.77305317,-0.040934816,0.00599932671,0.995984197,1.00800002,-2.41000009,-2.5999999,-3,-0.200000003,0,0,3.0999999,3,2.5,0,0,0,1.697056e-05,-1.697056e-05,0,0,0.30779016,-0.465418607,1.49586022,-2.21955037,1.49586022,0,-0,-2.2340095,0.0144590661,0,1515,1875,1510,1316,4.86000013,-4.80000019,21.6700001,0,0.0199999996,0.540000021,0,0,1,0.000212132014,-0.000212132014
0.710762,1783676943.237789,11,-3.01076245,-2.82876253,6.01663876,0,0.048199106,0.00442369375,0.99414438,0.0250504352,-0.0311127137,0.00562647264,66.9250031,991.710449,0,0.427000016,0.254950196,2.77567077,0.278657109,2.78344798,-0.023706913,-0.00777721405,0.995984197,1.00800002,-2.41000009,-2.5999999,-3,-0.200000003,0,0,3.0999999,3,2.5,-0.000104262836,0.000124372018,3.32450873e-05,-5.10167811e-05,1.70959265e-05,0,0,0.30779016,-0.465418607,1.49586022,-2.21955037,1.49586022,0,-0,-2.2340095,0.0144590661,0,1515,1875,1510,1316,4.86000013,-4.80000019,21.6700001,0,0.0199999996,0.540000021,0,0,1,-0.000636396057,0.000212132014
0.771626,1783676943.298654,12,-3.01032448,-2.82560802,6.01623631,0,0.0492481515,0.00414560083,0.99451524,-0.00754602905,-0.0663897246,-0.0114475358,66.9750061,991.710449,0,0.0920000076,0.238834009,2.8349328,0.279160857,2.78637743,-0.0403268486,0.0485553741,0.996007919,1.00199997,-2.41000009,-2.5999999,-3,-0.200000003,0,0,3.0999999,3,2.5,0,0,0,-3.39411199e-05,0,0,0,0.30779016,-0.465418607,1.49586022,-2.21955037,1.49586022,0,-0,-2.2340095,0.0144590661,0,1515,1875,1510,1316,4.86000013,-4.80000019,21.6700001,0,0.0199999996,0.540000021,0,0,1,-0.000424264028,-0
0.833457,1783676943.360485,13,-3.00787568,-2.81507754,6.01544857,0,0.0492565408,0.00493866578,0.994332492,-0.0128248585,-0.046616137,-0.021996025,67.0250015,991.710449,0,0.612000048,0.284575224,2.83592463,0.281435966,2.79694486,0.00313925743,0.0389797688,0.995980263,1.00899994,-2.41000009,-2.5999999,-3,-0.200000003,0,0,3.0999999,3,2.5,-0.000191549072,-7.68117661e-06,8.50868237e-05,-3.41343912e-05,3.3933371e-05,0,0,0.30779016,-0.465418607,1.49586022,-2.21955037,1.49586022,0,-0,-2.2340095,0.0144590661,0,1515,1875,1510,1316,4.86000013,-4.80000019,21.6700001,0,0.0199999996,0.540000021,0,0,1,-0.000424264028,0.000424264028
0.896079,1783676943.423107,14,-3.0093534,-2.82286429,6.01478863,0,0.0478406549,0.00523233227,0.994791746,-0.0028684279,-0.0623666197,-0.0197122302,67.0750046,991.714417,0,0.187000006,0.301357329,2.75325942,0.279884636,2.78946042,0.0214726925,-0.0362010002,0.99598819,1.00699997,-2.41000009,-2.5999999,-3,-0.200000003,0,0,3.0999999,3,2.5,0.0002122593,-0.000109192064,-0.000101108555,-3.37273741e-05,-1.0995641e-07,0,0,0.30779016,-0.465418607,1.49586022,-2.21955037,1.49586022,0,-0,-2.2340095,0.0144590661,0,1515,1875,1510,1316,4.86000013,-4.80000019,21.6700001,0,0.0199999996,0.540000021,0,0,1,-0.000424264028,-0
0.959016,1783676943.486043,15,-3.00756693,-2.82008052,6.01410866,0,0.0496906675,0.0049502477,0.994514883,-0.00438075047,-0.0248644929,-0.0220302921,67.125,991.714417,0,0.78700006,0.285190284,2.86035419,0.281743616,2.79182386,0.00344666839,0.0685303211,0.99598819,1.00699997,-2.41000009,-2.5999999,-3,-0.200000003,0,0,3.0999999,3,2.5,0.000153965957,-4.58018512e-05,-0.000142650606,-5.07566401e-05,1.69244377e-05,0,0,0.30779016,-0.465418607,1.49586022,-2.21955037,1.49586022,0,-0,-2.2340095,0.0144590661,0,1515,1875,1510,1316,4.86000013,-4.80000019,21.6700001,0,0.0199999996,0.540000021,0,0,1,-0.000636396057,0.000212132014
1.022734,1783676943.549762,16,-3.0112114,-2.81499577,6.01338291,0,0.0496805236,0.00477876654,0.995039046,0.00802141707,-0.0603603609,-0.00174195855,67.1750031,991.714417,0,0.35800001,0.275166154,2.85826945,0.27812475,2.79693699,-0.00295859575,0.0613324642,0.995980263,1.00899994,-2.41000009,-2.5999999,-3,-0.200000003,0,0,3.0999999,3,2.5,8.18467161e-05,-0.00022717753,1.33323674e-05,-3.38585378e-05,3.37118981e-05,0,0,0.30779016,-0.465418607,1.49586022,-2.21955037,1.49586022,0,-0,-2.2340095,0.0144590661,0,1515,1875,1510,1316,4.86000013,-4.80000019,21.6700001,0,0.0199999996,0.540000021,0,0,1,-0.000424264028,0.000424264028
1.084383,1783676943.611411,17,-3.01282644,-2.81475902,6.01317215,0,0.0478371829,0.00423200428,0.993810356,0.00122526009,0.0389006734,-0.0374495313,67.2250061,991.714417,0,0.088000007,0.243984714,2.75578737,0.276629776,2.79758906,-0.0326450616,-0.0418016911,0.995960414,1.01400006,-2.41000009,-2.5999999,-3,-0.200000003,0,0,3.0999999,3,2.5,0,0,0,-3.39411199e-05,3.39411199e-05,0,0,0.30779016,-0.465418607,1.49586022,-2.21955037,1.49586022,0,-0,-2.2340095,0.0144590661,0,1515,1875,1510,1316,4.86000013,-4.80000019,21.6700001,0,0.0199999996,0.540000021,0,0,1,-0.000424264028,0.000424264028
1.116146,1783676943.643173,18,-3.0128994,-2.81427383,6.01222801,0,0.0482836664,0.00481136749,0.994394779,-0.0191723313,-0.0353674293,-3.99909914e-06,67.2750015,991.714417,0,0.550999999,0.277222782,2.77982855,0.276421696,2.7979784,0.000801086426,-0.0181498528,0.995984197,1.00800002,-2.41000009,-2.5999999,-3,-0.200000003,0,0,3.0999999,3,2.5,-0.000139194133,-6.20499995e-05,6.18553167e-05,3.3800814e-05,3.38785721e-05,0,0,0.30779016,-0.465418607,1.49586022,-2.21955037,1.49586022,0,-0,-2.2340095,0.0144590661,0,1515,1875,1510,1316,4.86000013,-4.80000019,21.6700001,0,0.0199999996,0.540000021,0,0,1,0.000424264028,0.000424264028
1.178902,1783676943.705930,19,-3.01378727,-2.81664777,6.01173592,0,0.0506072007,0.00501937838,0.994418383,-0.00506539457,-0.0620456114,0.0113289766,67.3250046,991.706482,0,0.0980000049,0.289200962,2.91330361,0.275481939,2.79505682,0.0137190223,0.118246794,0.995984197,1.00800002,-2.41000009,-2.5999999,-3,-0.200000003,0,0,3.0999999,3,2.5,0.000124284634,-0.000119437434,-5.74493424e-05,-3.38158425e-05,3.38207283e-05,0,0,0.30779016,-0.465418607,1.49586022,-2.21955037,1.49586022,0,-0,-2.2340095,0.0144590661,0,1515,1875,1510,1316,4.86000013,-4.80000019,21.6700001,0,0.0199999996,0.540000021,0,0,1,-0.000424264028,0.000424264028
1.240708,1783676943.767735,20,-3.01333666,-2.80849791,6.01105022,0,0.0490410328,0.00444953004,0.994517684,0.000456553884,-0.000764934346,-0.00452033384,67.375,991.706482,0,0.72300005,0.256342947,2.82301855,0.276066989,2.80360341,-0.0197240412,0.0194151402,0.995980263,1.00899994,-2.41000009,-2.5999999,-3,-0.200000003,0,0,3.0999999,3,2.5,-8.73845856e-05,1.92383686e-05,7.33566339e-05,-1.70587318e-05,5.09310958e-05,0,0,0.30779016,-0.465418607,1.49586022,-2.21955037,1.49586022,0,-0,-2.2340095,0.0144590661,0,1515,1875,1510,1316,4.86000013,-4.80000019,21.6700001,0,0.0199999996,0.540000021,0,0,1,-0.000212132014,0.000636396057
1.303395,1783676943.830422,21,-3.01370931,-2.80818105,6.01072788,0,0.0500189811,0.00464514364,0.994891405,-0.0220754314,0.0085228784,0.0127235036,67.4250031,991.706482,0,0.280000001,0.267511815,2.87813759,0.27564764,2.80369902,-0.0081358254,0.0744385719,0.995980263,1.00899994,-2.41000009,-2.5999999,-3,-0.200000003,0,0,3.0999999,3,2.5,0.000111769441,0.000121919147,1.05857853e-05,1.12775368e-07,-3.38181053e-05,0,0,0.30779016,-0.465418607,1.49586022,-2.21955037,1.49586022,0,-0,-2.2340095,0.0144590661,0,1515,1875,1510,1316,4.86000013,-4.80000019,21.6700001,0,0.0199999996,0.540000021,0,0,1,-0,-0.000424264028
1.365415,1783676943.892442,22,-3.01489949,-2.79861355,6.00986481,0,0.0491202697,0.00453160657,0.993915498,-0.0151173929,-0.0542506464,-0.0237045437,67.4750061,991.706482,0,0.899000049,0.261229575,2.82928157,0.274477929,2.81350231,-0.0132483542,0.0157792568,0.995984197,1.00800002,-2.41000009,-2.5999999,-3,-0.200000003,0,0,3.0999999,3,2.5,0,0,0,-1.697056e-05,-1.697056e-05,0,0,0.30779016,-0.465418607,1.49586022,-2.21955037,1.49586022,0,-0,-2.2340095,0.0144590661,0,1515,1875,1510,1316,4.86000013,-4.80000019,21.6700001,0,0.0199999996,0.540000021,0,0,1,-0.000212132014,-0.000212132014
1.428055,1783676943.955082,23,-3.01589966,-2.79520202,6.0094862,0,0.0490777083,0.00494400319,0.994322896,-0.0579530485,-0.0728185698,-0.00780453254,67.5250015,991.706482,0,0.45600003,0.284885526,2.82567263,0.273378313,2.81694221,0.0115072131,0.00873041153,0.995984197,1.00800002,-2.41000009,-2.5999999,-3,-0.200000003,0,0,3.0999999,3,2.5,-6.42335435e-05,1.98597463e-05,7.781983e-05,1.6905813e-05,-1.6950542e-05,0,0,0.30779016,-0.465418607,1.49586022,-2.21955037,1.49586022,0,-0,-2.2340095,0.0144590661,0,1515,1875,1510,1316,4.86000013,-4.80000019,21.6700001,0,0.0199999996,0.540000021,0,0,1,0.000212132014,-0.000212132014
1.489937,1783676944.016965,24,-3.0155766,-2.80354023,6.0085659,0,0.0488998629,0.00487622665,0.994208217,0.032826107,-0.0063038934,-0.0269788299,67.5750046,991.72229,0,0.0920000076,0.281012565,2.81577444,0.273717642,2.80860949,0.00729492307,0.00716495514,0.995877028,1.03499997,-2.41000009,-2.5999999,-3,-0.200000003,0,0,3.0999999,3,2.5,0,0,0,-1.697056e-05,-5.09116835e-05,0,0,0.30779016,-0.465418607,1.49586022,-2.21955037,1.49586022,0,-0,-2.2340095,0.0144590661,0,1515,1875,1510,1316,4.86000013,-4.80000019,21.6700001,0,0.0199999996,0.540000021,0,0,1,-0.000212132014,-0.000636396057
1.521667,1783676944.048695,25,-3.01183248,-2.79482794,6.00810337,0,0.0495802164,0.0054582255,0.994074285,-0.000812796876,-0.082923159,-0.00254286639,67.625,991.72229,0,0.640000045,0.314594358,2.8552618,0.277342141,2.81719828,0.0372522175,0.0380635262,0.995984197,1.00800002,-2.41000009,-2.5999999,-3,-0.200000003,0,0,3.0999999,3,2.5,-4.96208704e-05,0.000103225044,0.000131263732,-5.00178352e-08,1.04050841e-07,0,0,0.30779016,-0.465418607,1.49586022,-2.21955037,1.49586022,0,-0,-2.2340095,0.0144590661,0,1515,1875,1510,1316,4.86000013,-4.80000019,21.6700001,0,0.0199999996,0.540000021,0,0,1,-0,-0
1.584102,1783676944.111130,26,-3.00965786,-2.79415488,6.00753784,0,0.0486066528,0.00447198842,0.994443536,-0.00234761368,-0.0912618935,0.000842409208,67.6750031,991.72229,0,0.213000014,0.257656008,2.79826164,0.279755086,2.81810403,-0.0220990777,-0.0198423862,0.995984197,1.00800002,-2.41000009,-2.5999999,-3,-0.200000003,0,0,3.0999999,3,2.5,8.74704128e-05,8.98126527e-05,-9.2239381e-05,8.81701752e-08,9.05311524e-08,0,0,0.30779016,-0.465418607,1.49586022,-2.21955037,1.49586022,0,-0,-2.2340095,0.0144590661,0,1515,1875,1510,1316,4.86000013,-4.80000019,21.6700001,0,0.0199999996,0.540000021,0,0,1,-0,-0
1.646706,1783676944.173733,27,-3.01064515,-2.79434252,6.00688934,0,0.0501852967,0.00501314458,0.994346678,-0.0206524022,0.028248027,-0.0335669741,67.7250061,991.72229,0,0.812000036,0.288862616,2.88926554,0.278638124,2.81754899,0.0102244914,0.071716547,0.99598819,1.00699997,-2.41000009,-2.5999999,-3,-0.200000003,0,0,3.0999999,3,2.5,8.7023378e-05,0.000122781479,-0.000116558076,1.70581916e-05,1.70942003e-05,0,0,0.30779016,-0.465418607,1.49586022,-2.21955037,1.49586022,0,-0,-2.2340095,0.0144590661,0,1515,1875,1510,1316,4.86000013,-4.80000019,21.6700001,0,0.0199999996,0.540000021,0,0,1,0.000212132014,0.000212132014
1.709456,1783676944.236484,28,-3.01284218,-2.78118801,6.0061121,0,0.0502133816,0.00407712208,0.994070232,-0.020158032,0.00113759562,-0.0161708482,67.7750015,991.72229,0,0.382000029,0.234994054,2.89169455,0.276649773,2.83074617,-0.0416557193,0.0609483719,0.995976269,1.00999999,-2.41000009,-2.5999999,-3,-0.200000003,0,0,3.0999999,3,2.5,5.01251234e-05,3.22591513e-05,1.68800361e-05,-1.69199338e-05,-1.69379782e-05,0,0,0.30779016,-0.465418607,1.49586022,-2.21955037,1.49586022,0,-0,-2.2340095,0.0144590661,0,1515,1875,1510,1316,4.86000013,-4.80000019,21.6700001,0,0.0199999996,0.540000021,0,0,1,-0.000212132014,-0.000212132014
1.786236,1783676944.313263,29,-3.01212025,-2.78645205,6.00549412,0,0.0477839224,0.0050733923,0.994038284,0.0153605891,-0.0199332498,-0.049749814,67.8250046,991.555786,0,0.088000007,0.292424828,2.75208282,0.27714467,2.82601452,0.0152801573,-0.073931694,0.996111214,0.975999951,-2.41000009,-2.5999999,-3,-0.200000003,0,0,3.0999999,3,2.5,0,0,0,0,0,0,0,0.30779016,-0.465418607,1.49586022,-2.21955037,1.49586022,0,-0,-2.2340095,0.0144590661,0,1515,1875,1510,1316,4.86000013,-4.80000019,21.6700001,0,0.0199999996,0.540000021,0,0,1,-0,-0
1.817858,1783676944.344885,30,-3.01185203,-2.78579021,6.0042572,0,0.0500655957,0.00517315883,0.99337703,0.0264457017,0.000753291533,-0.0351555794,67.875,991.555786,0,0.574000001,0.29837361,2.88519216,0.277388066,2.82615185,0.0209855437,0.059040308,0.995984197,1.00800002,-2.41000009,-2.5999999,-3,-0.200000003,0,0,3.0999999,3,2.5,7.80826813e-05,0.000112997222,-2.0370484e-05,-1.68918523e-05,-1.68566585e-05,0,0,0.30779016,-0.465418607,1.49586022,-2.21955037,1.49586022,0,-0,-2.2340095,0.0144590661,0,1515,1875,1510,1316,4.86000013,-4.80000019,21.6700001,0,0.0199999996,0.540000021,0,0,1,-0.000212132014,-0.000212132014
1.879911,1783676944.406939,31,-3.00980854,-2.7763443,6.00321102,0,0.050004445,0.005042681,0.994137287,-0.0549973026,-0.0815591812,-0.0372822583,67.9250031,991.555786,0,0.131000012,0.290625721,2.87947583,0.279470861,2.83565903,0.0111548603,0.0438168049,0.995984197,1.00800002,-2.41000009,-2.5999999,-3,-0.200000003,0,0,3.0999999,3,2.5,2.17437764e-06,1.79249801e-05,-5.46455412e-05,2.19177254e-09,1.80683806e-08,0,0,0.30779016,-0.465418607,1.49586022,-2.21955037,1.49586022,0,-0,-2.2340095,0.0144590661,0,1515,1875,1510,1316,4.86000013,-4.80000019,21.6700001,0,0.0199999996,0.540000021,0,0,1,-0,-0
1.942568,1783676944.469595,32,-3.01258516,-2.77517152,6.0026226,0,0.0485140011,0.00454881508,0.994467378,0.00945338421,0.0508175045,-0.0396640226,67.9750061,991.555786,0,0.748000026,0.26207605,2.79286838,0.276798129,2.83718562,-0.014722079,-0.0443172455,0.99598819,1.00699997,-2.41000009,-2.5999999,-3,-0.200000003,0,0,3.0999999,3,2.5,-0.000133032212,-9.34682794e-06,-0.000119934084,-1.33963439e-07,-9.41225586e-09,0,0,0.30779016,-0.465418607,1.49586022,-2.21955037,1.49586022,0,-0,-2.2340095,0.0144590661,0,1515,1875,1510,1316,4.86000013,-4.80000019,21.6700001,0,0.0199999996,0.540000021,0,0,1,-0,-0
1.988149,1783676944.515177,33,-3.01093507,-2.77900481,6.00196934,0,0.0488071255,0.00432474166,0.993726254,-0.0141120348,-0.0888240784,-0.0081326291,68.0250015,991.555786,0,0.305000007,0.249352247,2.81181121,0.27850619,2.83326054,-0.0291539431,-0.0214493275,0.99598819,1.00699997,-2.41000009,-2.5999999,-3,-0.200000003,0,0,3.0999999,3,2.5,6.68585335e-06,3.23300083e-05,8.932114e-05,3.39478538e-05,3.39736762e-05,0,0,0.30779016,-0.465418607,1.49586022,-2.21955037,1.49586022,0,-0,-2.2340095,0.0144590661,0,1515,1875,1510,1316,4.86000013,-4.80000019,21.6700001,0,0.0199999996,0.540000021,0,0,1,0.000424264028,0.000424264028
2.050596,1783676944.577623,34,-3.00961518,-2.78197002,6.00133801,0,0.0491495207,0.0046802205,0.994429708,-0.0243652537,0.025666628,0.0120957866,68.0750046,991.674744,0,0.117000006,0.269656956,2.82950044,0.279749095,2.83021212,-0.0100921392,-0.000711679459,0.996043682,0.992999971,-2.41000009,-2.5999999,-3,-0.200000003,0,0,3.0999999,3,2.5,0,0,0,5.09116835e-05,1.697056e-05,0,0,0.30779016,-0.465418607,1.49586022,-2.21955037,1.49586022,0,-0,-2.2340095,0.0144590661,0,1515,1875,1510,1316,4.86000013,-4.80000019,21.6700001,0,0.0199999996,0.540000021,0,0,1,0.000636396057,0.000212132014
2.114356,1783676944.641384,35,-3.01002312,-2.77831459,6.00086403,0,0.0497975089,0.00478497893,0.993480325,-0.010003509,-0.0314086266,-0.00216340832,68.125,991.674744,0,0.476000011,0.275956124,2.86947632,0.279314637,2.83372116,-0.00335851312,0.0357551575,0.995984197,1.00800002,-2.41000009,-2.5999999,-3,-0.200000003,0,0,3.0999999,3,2.5,3.55142365e-05,-2.50214343e-05,0.000155239119,3.5798351e-08,-2.52216061e-08,0,0,0.30779016,-0.465418607,1.49586022,-2.21955037,1.49586022,0,-0,-2.2340095,0.0144590661,0,1515,1875,1510,1316,4.86000013,-4.80000019,21.6700001,0,0.0199999996,0.540000021,0,0,1,-0,-0
2.175143,1783676944.702170,36,-3.00910568,-2.77902722,6.00013733,0,0.0497754663,0.00493409159,0.994089723,0.00191131607,-0.00744503271,0.00408074353,68.1750031,991.674744,0,0.111000009,0.284381062,2.86645079,0.280201882,2.83301783,0.00417917967,0.0334329605,0.995984197,1.00800002,-2.41000009,-2.5999999,-3,-0.200000003,0,0,3.0999999,3,2.5,0.000115301016,-3.52013121e-05,8.33129889e-05,1.70867843e-05,1.69350769e-05,0,0,0.30779016,-0.465418607,1.49586022,-2.21955037,1.49586022,0,-0,-2.2340095,0.0144590661,0,1515,1875,1510,1316,4.86000013,-4.80000019,21.6700001,0,0.0199999996,0.540000021,0,0,1,0.000212132014,0.000212132014
2.207767,1783676944.734794,37,-3.00750566,-2.77087736,5.99931812,0,0.0490100272,0.00448152702,0.993883312,-0.0406746268,-0.116201982,-0.0381416455,68.2250061,991.674744,0,0.664000034,0.258351088,2.82303429,0.281913221,2.84137559,-0.0235621333,-0.0183413029,0.995984197,1.00800002,-2.41000009,-2.5999999,-3,-0.200000003,0,0,3.0999999,3,2.5,-1.81531905e-05,-8.489639e-05,3.98254415e-05,1.69522609e-05,1.68849838e-05,0,0,0.30779016,-0.465418607,1.49586022,-2.21955037,1.49586022,0,-0,-2.2340095,0.0144590661,0,1515,1875,1510,1316,4.86000013,-4.80000019,21.6700001,0,0.0199999996,0.540000021,0,0,1,0.000212132014,0.000212132014
2.270577,1783676944.797605,38,-3.00939822,-2.77617574,5.99780941,0,0.0490390658,0.00484602479,0.994209409,0.0245976187,0.00350995362,-0.0398012362,68.2750015,991.674744,0,0.236000016,0.279271722,2.8237741,0.279928625,2.83605289,-0.00065690279,-0.0122787952,0.995984197,1.00800002,-2.41000009,-2.5999999,-3,-0.200000003,0,0,3.0999999,3,2.5,2.01666371e-05,7.64849829e-05,6.12831136e-05,2.03279704e-08,7.7096864e-08,0,0,0.30779016,-0.465418607,1.49586022,-2.21955037,1.49586022,0,-0,-2.2340095,0.0144590661,0,1515,1875,1510,1316,4.86000013,-4.80000019,21.6700001,0,0.0199999996,0.540000021,0,0,1,-0,-0
2.331488,1783676944.858516,39,-3.01211524,-2.78233409,5.99694443,0,0.0501737408,0.00458594598,0.994616866,0.010021341,-0.015466176,0.0196258742,68.3250046,991.888916,0,0.839000046,0.264175564,2.88782406,0.277261645,2.82961154,-0.0130860806,0.0582125187,0.995984197,1.00800002,-2.41000009,-2.5999999,-3,-0.200000003,0,0,3.0999999,3,2.5,1.10542778e-05,3.48009926e-05,-4.23431411e-05,1.69817031e-05,-1.69354807e-05,0,0,0.30779016,-0.465418607,1.49586022,-2.21955037,1.49586022,0,-0,-2.2340095,0.0144590661,0,1515,1875,1510,1316,4.86000013,-4.80000019,21.6700001,0,0.0199999996,0.540000021,0,0,1,0.000212132014,-0.000212132014
2.394889,1783676944.921917,40,-3.01236343,-2.7807219,5.99670601,0,0.0499814488,0.00533057563,0.99412781,-0.00849627703,-0.0115095433,-0.0183732528,68.375,991.888916,0,0.410000026,0.307220638,2.87817693,0.276839018,2.83126926,0.0303816199,0.0469076633,0.99598819,1.00699997,-2.41000009,-2.5999999,-3,-0.200000003,0,0,3.0999999,3,2.5,0.000117090945,0.00014353999,3.41033956e-05,-1.68526494e-05,1.71151041e-05,0,0,0.30779016,-0.465418607,1.49586022,-2.21955037,1.49586022,0,-0,-2.2340095,0.0144590661,0,1515,1875,1510,1316,4.86000013,-4.80000019,21.6700001,0,0.0199999996,0.540000021,0,0,1,-0.000212132014,0.000212132014
2.457273,1783676944.984300,41,-3.01508904,-2.78053427,5.99602604,0,0.0486165173,0.0050687124,0.994315028,-0.0302767009,-0.0743031725,-0.0335423835,68.4250031,991.888916,0,0.0890000015,0.292073756,2.79918194,0.274164766,2.83177304,0.0179089904,-0.0325911045,0.996067524,0.986999929,-2.41000009,-2.5999999,-3,-0.200000003,0,0,3.0999999,3,2.5,0,0,0,-5.09116835e-05,1.697056e-05,0,0,0.30779016,-0.465418607,1.49586022,-2.21955037,1.49586022,0,-0,-2.2340095,0.0144590661,0,1515,1875,1510,1316,4.86000013,-4.80000019,21.6700001,0,0.0199999996,0.540000021,0,0,1,-0.000636396057,0.000212132014
2.519982,1783676945.047010,42,-3.01493216,-2.78690577,5.9953804,0,0.0481784306,0.00462847995,0.994807124,0.00866339728,-0.0174153559,-0.0243228432,68.4750061,991.888916,0,0.604000032,0.26657474,2.77263403,0.27442354,2.82548571,-0.00784879923,-0.0528516769,0.995984197,1.00800002,-2.41000009,-2.5999999,-3,-0.200000003,0,0,3.0999999,3,2.5,-0.000118446354,7.98929541e-05,-2.8266908e-05,1.68511651e-05,1.70510921e-05,0,0,0.30779016,-0.465418607,1.49586022,-2.21955037,1.49586022,0,-0,-2.2340095,0.0144590661,0,1515,1875,1510,1316,4.86000013,-4.80000019,21.6700001,0,0.0199999996,0.540000021,0,0,1,0.000212132014,0.000212132014
2.595829,1783676945.122856,43,-3.01402164,-2.78281546,5.99473095,0,0.0501360372,0.00547233224,0.994273961,-0.00515295845,-0.0259735771,0.00559497997,68.5250015,991.888916,0,0.160000011,0.315344036,2.88663816,0.275141269,2.8291328,0.0402027667,0.0575053692,0.995984197,1.00800002,-2.41000009,-2.5999999,-3,-0.200000003,0,0,3.0999999,3,2.5,-0.000209351783,7.83189389e-05,5.30433681e-05,-2.11026602e-07,7.89454901e-08,0,0,0.30779016,-0.465418607,1.49586022,-2.21955037,1.49586022,0,-0,-2.2340095,0.0144590661,0,1515,1875,1510,1316,4.86000013,-4.80000019,21.6700001,0,0.0199999996,0.540000021,0,0,1,-0,-0
2.626561,1783676945.153588,44,-3.01526308,-2.78640318,5.99391842,0,0.0487862602,0.00430780882,0.994358361,0.018933313,0.0706626475,0.00510210125,68.5750046,991.710449,0,0.749000013,0.248218089,2.80882764,0.274168223,2.8258462,-0.0259501338,-0.0170185566,0.995877028,1.03499997,-2.41000009,-2.5999999,-3,-0.200000003,0,0,3.0999999,3,2.5,-6.8317655e-05,0.000124461207,0.000163707737,-1.70412695e-05,5.10405007e-05,0,0,0.30779016,-0.465418607,1.49586022,-2.21955037,1.49586022,0,-0,-2.2340095,0.0144590661,0,1515,1875,1510,1316,4.86000013,-4.80000019,21.6700001,0,0.0199999996,0.540000021,0,0,1,-0.000212132014,0.000636396057
2.689061,1783676945.216089,45,-3.01459932,-2.78107357,5.99343204,0,0.0495753027,0.00523281842,0.993614912,-0.0131322294,-0.022058893,0.0150398705,68.625,991.710449,0,0.33100003,0.301742285,2.85630059,0.274615854,2.83100414,0.0271264315,0.0252964497,0.995980263,1.00899994,-2.41000009,-2.5999999,-3,-0.200000003,0,0,3.0999999,3,2.5,-4.62341341e-05,5.25686155e-05,-8.29696655e-05,-4.66502428e-08,-3.38880782e-05,0,0,0.30779016,-0.465418607,1.49586022,-2.21955037,1.49586022,0,-0,-2.2340095,0.0144590661,0,1515,1875,1510,1316,4.86000013,-4.80000019,21.6700001,0,0.0199999996,0.540000021,0,0,1,-0,-0.000424264028
2.752606,1783676945.279633,46,-3.01852322,-2.78116441,5.99244308,0,0.0488482527,0.00424039457,0.994198799,-0.020173585,-0.0483455881,-0.0474049523,68.6750031,991.710449,0,0.119000003,0.244372889,2.81284237,0.270905614,2.83108664,-0.0265327245,-0.0182442665,0.99606353,0.987999976,-2.41000009,-2.5999999,-3,-0.200000003,0,0,3.0999999,3,2.5,0,0,0,3.39411199e-05,0,0,0,0.30779016,-0.465418607,1.49586022,-2.21955037,1.49586022,0,-0,-2.2340095,0.0144590661,0,1515,1875,1510,1316,4.86000013,-4.80000019,21.6700001,0,0.0199999996,0.540000021,0,0,1,0.000424264028,-0
2.784607,1783676945.311634,47,-3.01647449,-2.78716135,5.99205971,0,0.048213616,0.00511897262,0.994075119,0.0229287092,0.0236983169,0.000696576433,68.7250061,991.710449,0,0.522000015,0.295041025,2.77668881,0.272760391,2.82521272,0.0222806334,-0.0485239029,0.995984197,1.00800002,-2.41000009,-2.5999999,-3,-0.200000003,0,0,3.0999999,3,2.5,-7.93522631e-05,-4.14074966e-05,2.34603885e-05,-7.99870818e-08,-4.17387547e-08,0,0,0.30779016,-0.465418607,1.49586022,-2.21955037,1.49586022,0,-0,-2.2340095,0.0144590661,0,1515,1875,1510,1316,4.86000013,-4.80000019,21.6700001,0,0.0199999996,0.540000021,0,0,1,-0,-0
2.847064,1783676945.374091,48,-3.0175786,-2.78985095,5.99158192,0,0.0495455563,0.00505525852,0.994517326,0.0294521973,-0.0142572261,0.00542833004,68.7750015,991.710449,0,0.110000007,0.291239262,2.8520062,0.271667123,2.8222084,0.0195721388,0.0297977924,0.995980263,1.00899994,-2.41000009,-2.5999999,-3,-0.200000003,0,0,3.0999999,3,2.5,-3.80069032e-05,-4.84145457e-05,1.64222729e-05,3.3902772e-05,3.38922691e-05,0,0,0.30779016,-0.465418607,1.49586022,-2.21955037,1.49586022,0,-0,-2.2340095,0.0144590661,0,1515,1875,1510,1316,4.86000013,-4.80000019,21.6700001,0,0.0199999996,0.540000021,0,0,1,0.000424264028,0.000424264028
2.908668,1783676945.435695,49,-3.0171535,-2.79093647,5.99065304,0,0.0481604747,0.00513688801,0.994252264,0.00272766408,-0.0138948616,-0.0421833582,68.8250046,991.730225,0,0.697000027,0.296020836,2.77313924,0.27207461,2.82143664,0.0239462256,-0.0482974052,0.99598819,1.00699997,-2.41000009,-2.5999999,-3,-0.200000003,0,0,3.0999999,3,2.5,-0.00017068685,-1.21651592e-05,-3.35311888e-05,-1.71881652e-07,-1.22503154e-08,0,0,0.30779016,-0.465418607,1.49586022,-2.21955037,1.49586022,0,-0,-2.2340095,0.0144590661,0,1515,1875,1510,1316,4.86000013,-4.80000019,21.6700001,0,0.0199999996,0.540000021,0,0,1,-0,-0
2.971017,1783676945.498045,50,-3.02086759,-2.78760767,5.98996925,0,0.0503324643,0.00441731466,0.994266391,-0.0171951912,-0.0669485554,-0.0271410067,68.875,991.730225,0,0.268000007,0.254551321,2.89796543,0.268512815,2.82427573,-0.013961494,0.0736896992,0.995984197,1.00800002,-2.41000009,-2.5999999,-3,-0.200000003,0,0,3.0999999,3,2.5,0.000279666798,4.28185631e-05,1.36756898e-05,2.81904136e-07,4.3161112e-08,0,0,0.30779016,-0.465418607,1.49586022,-2.21955037,1.49586022,0,-0,-2.2340095,0.0144590661,0,1515,1875,1510,1316,4.86000013,-4.80000019,21.6700001,0,0.0199999996,0.540000021,0,0,1,-0,-0
3.050435,1783676945.577462,51,-3.02042246,-2.79229569,5.98961258,0,0.0475200154,0.00515720714,0.994306028,-0.00453501754,-0.0473639034,-0.0249572191,68.9250031,991.730225,0,0.867000043,0.297175676,2.73616934,0.268787771,2.82022095,0.0283879042,-0.084051609,0.995984197,1.00800002,-2.41000009,-2.5999999,-3,-0.200000003,0,0,3.0999999,3,2.5,0,0,0,0,0,0,0,0.30779016,-0.465418607,1.49586022,-2.21955037,1.49586022,0,-0,-2.2340095,0.0144590661,0,1515,1875,1510,1316,4.86000013,-4.80000019,21.6700001,0,0.0199999996,0.540000021,0,0,1,-0,-0
3.096442,1783676945.623470,52,-3.0212419,-2.78943229,5.98881149,0,0.0505404249,0.00444833562,0.993900657,-0.0153447967,-0.0409641154,-0.0408168882,68.9750061,991.730225,0,0.441000015,0.256433249,2.91098714,0.268129319,2.82239127,-0.0116960704,0.0885958672,0.995984197,1.00800002,-2.41000009,-2.5999999,-3,-0.200000003,0,0,3.0999999,3,2.5,2.72601847e-05,5.87672002e-06,1.27029425e-05,2.74782668e-08,5.92373395e-09,0,0,0.30779016,-0.465418607,1.49586022,-2.21955037,1.49586022,0,-0,-2.2340095,0.0144590661,0,1515,1875,1510,1316,4.86000013,-4.80000019,21.6700001,0,0.0199999996,0.540000021,0,0,1,-0,-0
3.158056,1783676945.685083,53,-3.02028322,-2.78902602,5.98810673,0,0.0498557463,0.00466817711,0.994746745,0.00911751762,-0.0187921785,0.000896648504,69.0250015,991.730225,0,0.088000007,0.268877357,2.86917686,0.269041806,2.82297301,-0.000164449215,0.0462038517,0.996099234,0.979000032,-2.41000009,-2.5999999,-3,-0.200000003,0,0,3.0999999,3,2.5,1.78813941e-09,0,0,1.69705636e-05,1.697056e-05,0,0,0.30779016,-0.465418607,1.49586022,-2.21955037,1.49586022,0,-0,-2.2340095,0.0144590661,0,1515,1875,1510,1316,4.86000013,-4.80000019,21.6700001,0,0.0199999996,0.540000021,0,0,1,0.000212132014,0.000212132014
3.189104,1783676945.716131,54,-3.02082825,-2.78390503,5.9876442,0,0.0487357825,0.00415598601,0.994451463,0.00214092713,-0.0406465828,-0.0197663624,69.0750046,991.69458,0,0.631000042,0.239447683,2.80566525,0.26861316,2.82836556,-0.0291654766,-0.0227003098,0.995984197,1.00800002,-2.41000009,-2.5999999,-3,-0.200000003,0,0,3.0999999,3,2.5,-0.000194007764,-2.61417044e-05,-3.73077419e-05,-1.95559821e-07,-2.6350838e-08,0,0,0.30779016,-0.465418607,1.49586022,-2.21955037,1.49586022,0,-0,-2.2340095,0.0144590661,0,1515,1875,1510,1316,4.86000013,-4.80000019,21.6700001,0,0.0199999996,0.540000021,0,0,1,-0,-0
3.250656,1783676945.777683,55,-2.59537148,-2.87674546,5.94116211,0,0.325312972,0.149375275,0.92285192,6.37135315,-1.69635296,-3.73245049,69.125,991.69458,0,0.191000015,9.19430542,19.1868401,0.659679472,2.66910172,8.53462601,16.5177383,0.995984197,1.00800002,-2.41000009,-2.5999999,-3,-0.200000003,0,0,3.0999999,3,2.5,0.0265452154,0.0101329284,-0.0126400571,2.67575761e-05,1.0213992e-05,0,0,0.30779016,-0.465418607,1.49586022,-2.21955037,1.49586022,0,-0,-2.2340095,0.0144590661,0,1515,1875,1510,1316,4.86000013,-4.80000019,21.6700001,0,0.0199999996,0.540000021,0,0,1,-0,-0
3.328312,1783676945.855340,56,-2.69630766,-2.85606742,5.97007847,0,-0.0177517068,0.00496796845,1.0022701,4.58491802,1.67180836,2.17122674,69.1750031,991.69458,0,0.810000062,0.283996612,-1.01467574,0.59426254,2.77131581,-0.310265929,-3.78599167,0.995984197,1.00800002,-2.41000009,-2.5999999,-3,-0.200000003,0,0,3.0999999,3,2.5,-0.018220745,-0.00442278851,-0.00447990419,-0.000103219318,-0.000157193208,0,0,0.30779016,-0.465418607,1.49586022,-2.21955037,1.49586022,0,-0,-2.2340095,0.0144590661,0,1515,1875,1510,1316,4.86000013,-4.80000019,21.6700001,0,0.0199999996,0.540000021,0,0,1,-0.00106066011,-0.00190918811
3.359609,1783676945.886636,57,-3.21299458,-2.86823058,5.79085541,0,0.0124712512,-0.0338281021,1.01511836,4.03918552,2.61031699,-4.64862585,69.2250061,991.69458,0,0.36500001,-1.90863514,0.703482211,0.0843408704,2.75218391,-1.99297595,-2.04870176,0.995980263,1.00899994,-2.41000009,-2.5999999,-3,-0.200000003,0,0,3.0999999,3,2.5,0.00593856024,0.00323605305,-0.000906143221,-1.09785524e-05,2.02357369e-05,0,0,0.30779016,-0.465418607,1.49586022,-2.21955037,1.49586022,0,-0,-2.2340095,0.0144590661,0,1515,1875,1510,1316,4.86000013,-4.80000019,21.6700001,0,0.0199999996,0.540000021,0,0,1,-0.000212132014,0.000212132014
3.422174,1783676945.949201,58,-3.6542697,-2.65813422,5.74054623,0,0.0337046161,0.00480357697,0.993288755,-2.49043226,3.56750226,-1.57031,69.2750015,991.69458,0,0.120000005,0.277082115,1.94341195,-0.367500633,2.95806742,0.644582748,-1.01465547,0.996035755,0.995000005,-2.41000009,-2.5999999,-3,-0.200000003,0,0,3.0999999,3,2.5,0,0,0,6.78822398e-05,-6.78822398e-05,0,0,0.30779016,-0.465418607,1.49586022,-2.21955037,1.49586022,0,-0,-2.2340095,0.0144590661,0,1515,1875,1510,1316,4.86000013,-4.80000019,21.6700001,0,0.0199999996,0.540000021,0,0,1,0.000848528056,-0.000848528056
3.484563,1783676946.011590,59,-3.5273757,-2.44222617,5.73556423,0,0.0862541497,-0.01646295,1.00270462,-1.43644094,3.84834719,5.37358761,69.3250046,991.805603,0,0.57100004,-0.940628827,4.91590595,-0.235218525,3.16291356,-0.705410302,1.75299239,0.995984197,1.00800002,-2.41000009,-2.5999999,-3,-0.200000003,0,0,3.0999999,3,2.5,-0.00142071967,0.00130475173,-0.00114131928,8.3420724e-05,-1.56553779e-05,0,0,0.30779016,-0.465418607,1.49586022,-2.21955037,1.49586022,0,-0,-2.2340095,0.0144590661,0,1515,1875,1510,1316,4.86000013,-4.80000019,21.6700001,0,0.0199999996,0.540000021,0,0,1,0.00106066011,-0.000212132087
3.546757,1783676946.073784,60,-3.56210566,-3.21913815,6.12850857,0,-0.0436251312,-0.0334203877,1.07341707,-9.39494896,1.10426903,5.15127611,69.375,991.805603,0,0.149000004,-1.78330386,-2.32617188,-0.266697109,2.41205001,-1.51660681,-4.73822212,0.99598819,1.00699997,-2.41000009,-2.5999999,-3,-0.200000003,0,0,3.0999999,3,2.5,0.00405200804,0.00437286822,0.000294342055,0.000173785986,-6.34787648e-05,0,0,0.30779016,-0.465418607,1.49586022,-2.21955037,1.49586022,0,-0,-2.2340095,0.0144590661,0,1515,1875,1510,1316,4.86000013,-4.80000019,21.6700001,0,0.0199999996,0.540000021,0,0,1,0.00212132023,-0.000848527998
3.608556,1783676946.135584,61,-4.02840757,-3.82510328,6.18612957,0,-0.092151612,-0.208053067,1.14089692,-8.26815319,5.96912527,-1.75127101,69.4250031,991.805603,0,0.784000039,-10.3348503,-4.543221,-0.70039314,1.81259966,-9.63445759,-6.35582066,0.995984197,1.00800002,-2.41000009,-2.5999999,-3,-0.200000003,0,0,3.0999999,3,2.5,-0.00398423197,0.00436493428,-0.00151971821,1.29544542e-05,0.000394722796,0,0,0.30779016,-0.465418607,1.49586022,-2.21955037,1.49586022,0,-0,-2.2340095,0.0144590661,0,1515,1875,1510,1316,4.86000013,-4.80000019,21.6700001,0,0.0199999996,0.540000021,0,0,1,0.000212131999,0.00487903692
3.671047,1783676946.198074,62,-4.94527674,-3.93387866,6.17866325,0,0.102494121,-0.173056751,1.12655306,-6.99873018,10.9986477,9.36830425,69.4750061,991.805603,0,0.362000018,-8.73328876,5.13852787,-1.62744498,1.66436303,-7.10584354,3.47416496,0.99598819,1.00699997,-2.41000009,-2.5999999,-3,-0.200000003,0,0,3.0999999,3,2.5,-0.00081008795,0.00251069083,0.00190481194,-0.000357197569,1.94988261e-05,0,0,0.30779016,-0.465418607,1.49586022,-2.21955037,1.49586022,0,-0,-2.2340095,0.0144590661,0,1515,1875,1510,1316,4.86000013,-4.80000019,21.6700001,0,0.0199999996,0.540000021,0,0,1,-0.00445477292,0.000212131999
3.732888,1783676946.259916,63,-4.99495649,-3.13870382,6.79386044,0,0.0494123921,-0.0689376444,1.01911223,-13.5808573,6.29317284,17.8094769,69.5250015,991.805603,0,0.0870000049,-3.86986661,2.76953411,-1.69681954,2.47227001,-2.17304707,0.297264099,0.99594456,1.01800001,-2.41000009,-2.5999999,-3,-0.200000003,0,0,3.0999999,3,2.5,0,0,0,-6.78822398e-05,0.000203646734,0,0,0.30779016,-0.465418607,1.49586022,-2.21955037,1.49586022,0,-0,-2.2340095,0.0144590661,0,1515,1875,1510,1316,4.86000013,-4.80000019,21.6700001,0,0.0199999996,0.540000021,0,0,1,-0.000848528056,0.00254558423
3.779634,1783676946.306661,64,-4.62901497,-2.68616009,8.02426434,0,-0.0133400578,-0.0567801557,1.03705156,-22.5386219,1.73036695,29.3418388,69.5750046,992.016052,0,0.559000015,-3.13390231,-0.735878527,-1.33225572,2.94119406,-1.80164659,-3.67707253,0.995873153,1.03600001,-2.41000009,-2.5999999,-3,-0.200000003,0,0,3.0999999,3,2.5,-0.00334597193,0.000803818752,-0.00263780612,-0.0115943607,-0.00181501824,0,0,0.30779016,-0.465418607,1.49586022,-2.21955037,1.49586022,0,-0,-2.2340095,0.0144590661,0,1515,1875,1510,1316,4.86000013,-4.80000019,21.6700001,0,0.0199999996,0.540000021,0,0,1,-0.144886181,-0.0226981379
3.843445,1783676946.370472,65,-3.85713148,-2.93374538,9.20433998,0,0.0550279133,-0.0419342369,1.10596073,-24.3496113,0.18172811,14.9334803,69.625,992.016052,0,0.15200001,-2.17141938,2.8464036,-0.561341524,2.67775679,-1.61007786,0.168646812,0.995984197,1.00800002,-2.41000009,-2.5999999,-3,-0.200000003,0,0,3.0999999,3,2.5,0.000709966465,0.000992907328,-0.00072195055,-0.0103173861,0.00278417324,0,0,0.30779016,-0.465418607,1.49586022,-2.21955037,1.49586022,0,-0,-2.2340095,0.0144590661,0,1515,1875,1510,1316,4.86000013,-4.80000019,21.6700001,0,0.0199999996,0.540000021,0,0,1,-0.128976271,0.0347896554
3.883037,1783676946.410064,66,-3.05892158,-3.12728429,9.24029446,0,0.0230200682,-0.0248170141,1.05814362,-29.2405319,-1.59286547,-12.5119524,69.6750031,992.016052,0,0.816000044,-1.34353173,1.2459389,0.236736253,2.48988056,-1.58026803,-1.24394166,0.995992124,1.00599992,-2.41000009,-2.5999999,-3,-0.200000003,0,0,3.0999999,3,2.5,-0.00156178058,-0.000723262143,-0.000156555179,-0.0104045244,-0.000424991653,0,0,0.30779016,-0.465418607,1.49586022,-2.21955037,1.49586022,0,-0,-2.2340095,0.0144590661,0,1515,1875,1510,1316,4.86000013,-4.80000019,21.6700001,0,0.0199999996,0.540000021,0,0,1,-0.13003692,-0.00530330092
3.952451,1783676946.479479,67,5.2323184,0.933114529,-1.5282402,0,-0.0299954731,0.0719332397,0.933157921,-19.7051563,10.4181709,6.595716,70.5250015,991.769897,0,0.873000026,4.40797424,-1.83564222,8.53822899,6.57908535,-4.13025475,-8.41472721,0.995984197,1.00800002,-2.41000009,-2.5999999,-3,-0.200000003,0,0,3.0999999,3,2.5,0,0,0,-0.00312258396,-0.00376746501,0,0,0.30779016,-0.465418607,1.49586022,-2.21955037,1.49586022,0,-0,-2.2340095,0.0144590661,0,1515,1875,1510,1316,4.86000013,-4.80000019,21.6700001,0,0.0199999996,0.540000021,0,0,1,-0.0390322991,-0.0470933132
4.016104,1783676946.543131,68,4.53027534,0.905451775,-1.16637993,0,0.0695866495,0.0827248469,0.907990098,2.48480487,13.1671467,10.4103184,70.5750046,991.884949,0,0.432000011,5.20571232,4.3644681,7.83037949,6.52651072,-2.62466717,-2.16204262,0.995892882,1.03100002,-2.41000009,-2.5999999,-3,-0.200000003,0,0,3.0999999,3,2.5,-0.00389107363,-0.00384872686,0.00265073776,-0.00163318543,-0.00214225869,0,0,0.30779016,-0.465418607,1.49586022,-2.21955037,1.49586022,0,-0,-2.2340095,0.0144590661,0,1515,1875,1510,1316,4.86000013,-4.80000019,21.6700001,0,0.0199999996,0.540000021,0,0,1,-0.0203646719,-0.0267286338
4.078757,1783676946.605784,69,3.55532503,0.505623341,-0.388143539,0,0.0929908678,-0.0191863161,1.06539464,-0.313160986,-0.47067529,9.92416763,70.625,991.884949,0,0.124000005,-1.031708,4.98750257,6.87640667,6.12235975,-7.90811443,-1.13485718,0.995984197,1.00800002,-2.41000009,-2.5999999,-3,-0.200000003,0,0,3.0999999,3,2.5,0,0,0,-0.00358078862,-0.00622819643,0,0,0.30779016,-0.465418607,1.49586022,-2.21955037,1.49586022,0,-0,-2.2340095,0.0144590661,0,1515,1875,1510,1316,4.86000013,-4.80000019,21.6700001,0,0.0199999996,0.540000021,0,0,1,-0.0447598584,-0.0778524578
4.109941,1783676946.636968,70,3.33801985,0.289785862,-0.728410721,0,0.144690752,0.24416329,0.911462784,13.9042568,-14.8858433,-15.1230145,70.6750031,991.884949,0,0.660000026,14.9963398,8.71778297,6.59410191,5.89078093,8.40223789,2.82700205,0.996043682,0.992999971,-2.41000009,-2.5999999,-3,-0.200000003,0,0,3.0999999,3,2.5,-0.0237700306,-0.0191500299,0.0098446086,-0.00506386021,-0.00499139074,0,0,0.30779016,-0.465418607,1.49586022,-2.21955037,1.49586022,0,-0,-2.2340095,0.0144590661,0,1515,1875,1510,1316,4.86000013,-4.80000019,21.6700001,0,0.0199999996,0.540000021,0,0,1,-0.0630032122,-0.0621546805
4.172391,1783676946.699419,71,2.53470469,-0.654468536,-0.638364792,0,0.384509236,0.083005324,1.19313812,8.71273232,-27.6325016,-9.32952595,70.7250061,991.884949,0,0.217000008,3.97959352,17.8220863,5.83147287,4.90579081,-1.85187936,12.916296,0.995980263,1.00899994,-2.41000009,-2.5999999,-3,-0.200000003,0,0,3.0999999,3,2.5,0.0949385837,-0.0169510581,-0.0366544537,-0.00102426403,-0.00140868966,0,0,0.30779016,-0.465418607,1.49586022,-2.21955037,1.49586022,0,-0,-2.2340095,0.0144590661,0,1515,1875,1510,1316,4.86000013,-4.80000019,21.6700001,0,0.0199999996,0.540000021,0,0,1,-0.0140007138,-0.0173948258
4.234105,1783676946.761133,72,1.30932188,-1.64811897,-0.730464935,0,0.0492297672,-0.0198214669,0.982456505,-5.27268982,9.11711979,-13.2324495,70.7750015,991.884949,0,0.84800005,-1.15580928,2.86804366,4.62182474,3.9684751,-5.77763414,-1.10043144,0.99598819,1.00699997,-2.41000009,-2.5999999,-3,-0.200000003,0,0,3.0999999,3,2.5,0.0341464728,0.00689138519,-0.000112152105,-0.00118749496,-0.00260652672,0,0,0.30779016,-0.465418607,1.49586022,-2.21955037,1.49586022,0,-0,-2.2340095,0.0144590661,0,1515,1875,1510,1316,4.86000013,-4.80000019,21.6700001,0,0.0199999996,0.540000021,0,0,1,-0.0152735058,-0.0326683298
4.297791,1783676946.824819,73,0.676442146,-1.23936081,-0.785146713,0,0.177826688,-0.109475486,1.00104499,4.99109793,-7.09942484,-3.70409441,70.8250046,991.829407,0,0.406000018,-6.24113321,10.0145168,4.00692081,4.35007095,-10.2480545,5.66444588,0.995984197,1.00800002,-2.41000009,-2.5999999,-3,-0.200000003,0,0,3.0999999,3,2.5,0.00371614797,0.00635370985,0.000210689177,7.16280847e-05,-6.14777018e-05,0,0,0.30779016,-0.465418607,1.49586022,-2.21955037,1.49586022,0,-0,-2.2340095,0.0144590661,0,1515,1875,1510,1316,4.86000013,-4.80000019,21.6700001,0,0.0199999996,0.540000021,0,0,1,0.000848528056,-0.000848528056
4.360087,1783676946.887114,74,-0.277957439,-1.95288348,-0.685619354,0,0.0373244211,-0.0168164242,1.00070238,-4.37024975,0.649346471,3.80115557,70.875,991.829407,0,0.114000008,-0.962743223,2.13573933,3.02721572,3.66537189,-3.989959,-1.52963257,0.996027827,0.997000039,-2.41000009,-2.5999999,-3,-0.200000003,0,0,3.0999999,3,2.5,0,0,0,-0.000152735054,-1.69705727e-05,0,0,0.30779016,-0.465418607,1.49586022,-2.21955037,1.49586022,0,-0,-2.2340095,0.0144590661,0,1515,1875,1510,1316,4.86000013,-4.80000019,21.6700001,0,0.0199999996,0.540000021,0,0,1,-0.00190918823,-0.000212132174
4.422051,1783676946.949078,75,-0.571250439,-1.93468189,-0.748592377,0,0.125633225,-0.00438803434,0.991102517,4.07407713,10.224946,0.0806086063,70.9250031,991.829407,0,0.60800004,-0.253671259,7.22427511,2.73005605,3.6631968,-2.98372722,3.56107831,0.995984197,1.00800002,-2.41000009,-2.5999999,-3,-0.200000003,0,0,3.0999999,3,2.5,0.0021706582,0.00118671905,-0.00021520615,-0.000388134911,0.0001878724,0,0,0.30779016,-0.465418607,1.49586022,-2.21955037,1.49586022,0,-0,-2.2340095,0.0144590661,0,1515,1875,1510,1316,4.86000013,-4.80000019,21.6700001,0,0.0199999996,0.540000021,0,0,1,-0.00487903692,0.00233345246
4.483140,1783676947.010168,76,-1.25524354,-1.8839407,-0.704721451,0,0.0580606349,-0.00750895264,0.996142864,-3.33705211,-11.9316397,2.01552606,70.9750061,991.829407,0,0.160000011,-0.431888998,3.33564186,2.04430962,3.72986722,-2.47619867,-0.394225359,0.9958691,1.03699994,-2.41000009,-2.5999999,-3,-0.200000003,0,0,3.0999999,3,2.5,0.000200246577,0.000426719809,0.000343551656,0.000638623605,-0.000512782717,0,0,0.30779016,-0.465418607,1.49586022,-2.21955037,1.49586022,0,-0,-2.2340095,0.0144590661,0,1515,1875,1510,1316,4.86000013,-4.80000019,21.6700001,0,0.0199999996,0.540000021,0,0,1,0.000636396057,-0.000212132014
4.515261,1783676947.042288,77,-1.41217232,-2.54965806,-0.69562149,0,0.015010125,0.000586386537,0.99732852,3.22853613,10.7535267,-2.12899041,71.0250015,991.829407,0,0.793000042,0.0336874686,0.862255275,1.88458478,3.07139277,-1.85089731,-2.20913744,0.995984197,1.00800002,-2.41000009,-2.5999999,-3,-0.200000003,0,0,3.0999999,3,2.5,0.005349454,0.00121056323,-0.000176181798,-0.000300077838,0.000306690315,0,0,0.30779016,-0.465418607,1.49586022,-2.21955037,1.49586022,0,-0,-2.2340095,0.0144590661,0,1515,1875,1510,1316,4.86000013,-4.80000019,21.6700001,0,0.0199999996,0.540000021,0,0,1,-0.00381837622,0.00381837622
4.578584,1783676947.105611,78,-1.91957116,-2.01548672,-0.742927551,0,0.0911549255,0.000766836107,0.991740406,-3.13678551,-5.76287079,0.136571318,71.0750046,991.857178,0,0.376000017,0.0443023816,5.25153303,1.375108,3.59000707,-1.33080566,1.66152596,0.995976269,1.00999999,-2.41000009,-2.5999999,-3,-0.200000003,0,0,3.0999999,3,2.5,0.0013180197,-0.00213757972,0.000327243819,8.6184009e-05,-5.30706384e-05,0,0,0.30779016,-0.465418607,1.49586022,-2.21955037,1.49586022,0,-0,-2.2340095,0.0144590661,0,1515,1875,1510,1316,4.86000013,-4.80000019,21.6700001,0,0.0199999996,0.540000021,0,0,1,0.00106066011,-0.000636396057
4.648314,1783676947.175342,79,-1.98420763,-2.5839777,-0.686962128,0,-0.018124938,0.0110457418,0.99660784,3.23725629,-1.3702755,-0.584903538,71.125,991.857178,0,0.0870000049,0.635002553,-1.04183829,1.30777037,3.04431891,-0.672767818,-4.08615732,0.996055603,0.98999995,-2.41000009,-2.5999999,-3,-0.200000003,0,0,3.0999999,3,2.5,0,0,0,-6.78822544e-05,0.000135764494,0,0,0.30779016,-0.465418607,1.49586022,-2.21955037,1.49586022,0,-0,-2.2340095,0.0144590661,0,1515,1875,1510,1316,4.86000013,-4.80000019,21.6700001,0,0.0199999996,0.540000021,0,0,1,-0.000848528231,0.00169705623
4.688052,1783676947.215080,80,-2.36643171,-2.46368408,-0.744026184,0,0.0759304315,-0.00657269452,0.992334902,-3.07496524,6.78719759,-1.03110027,71.1750031,991.857178,0,0.592000008,-0.379491001,4.37547588,0.928143859,3.14354801,-1.30763483,1.23192787,0.995984197,1.00800002,-2.41000009,-2.5999999,-3,-0.200000003,0,0,3.0999999,3,2.5,0.00244140765,-0.00126193871,0.000135211943,-0.000184215256,0.000219345267,0,0,0.30779016,-0.465418607,1.49586022,-2.21955037,1.49586022,0,-0,-2.2340095,0.0144590661,0,1515,1875,1510,1316,4.86000013,-4.80000019,21.6700001,0,0.0199999996,0.540000021,0,0,1,-0.00233345246,0.00275771646
4.749229,1783676947.276256,81,-2.35664725,-2.35580492,-0.719501495,0,0.0459693149,0.02466291,0.991985083,2.92310047,-10.0068417,1.144521,71.2250061,991.857178,0,0.155000001,1.42420447,2.6524117,0.930693328,3.25881195,0.49351114,-0.606400251,0.995980263,1.00899994,-2.41000009,-2.5999999,-3,-0.200000003,0,0,3.0999999,3,2.5,0.00107732893,0.000407988147,-0.000168571481,-3.28540955e-05,3.4352779e-05,0,0,0.30779016,-0.465418607,1.49586022,-2.21955037,1.49586022,0,-0,-2.2340095,0.0144590661,0,1515,1875,1510,1316,4.86000013,-4.80000019,21.6700001,0,0.0199999996,0.540000021,0,0,1,-0.000424264028,0.000424264028
4.811016,1783676947.338043,82,-2.663131,-2.80047297,-0.70349884,0,0.0152260559,-0.0136617105,0.997697115,-2.01879859,7.89507818,-0.514286101,71.2750015,991.857178,0,0.782000065,-0.784516096,0.874252617,0.631881177,2.81951833,-1.41639733,-1.94526577,0.995984197,1.00800002,-2.41000009,-2.5999999,-3,-0.200000003,0,0,3.0999999,3,2.5,0.00441048201,0.000177037422,1.93405158e-05,-0.000148289269,0.00015291349,0,0,0.30779016,-0.465418607,1.49586022,-2.21955037,1.49586022,0,-0,-2.2340095,0.0144590661,0,1515,1875,1510,1316,4.86000013,-4.80000019,21.6700001,0,0.0199999996,0.540000021,0,0,1,-0.00190918811,0.00190918811
4.873305,1783676947.400332,83,-2.63930273,-2.35958171,-0.736261368,0,0.0621225424,0.0157949701,0.988727629,1.38993466,-4.50546169,0.0454468578,71.3250046,991.877014,0,0.339000016,0.915224969,3.59475541,0.648953199,3.25121927,0.26627177,0.343536139,0.99598819,1.00699997,-2.41000009,-2.5999999,-3,-0.200000003,0,0,3.0999999,3,2.5,-0.000130645043,0.00116749317,-0.000165195466,-8.49843709e-05,8.60284781e-05,0,0,0.30779016,-0.465418607,1.49586022,-2.21955037,1.49586022,0,-0,-2.2340095,0.0144590661,0,1515,1875,1510,1316,4.86000013,-4.80000019,21.6700001,0,0.0199999996,0.540000021,0,0,1,-0.00106066023,0.00106066023
4.919044,1783676947.446071,84,-2.85030198,-2.76503515,-0.702529907,0,-0.00311928196,-0.00746255554,0.998358548,-0.727245212,-1.51734948,-0.821169972,71.375,991.877014,0,0.0930000022,-0.428267956,-0.179009944,0.442443013,2.85907936,-0.870710969,-3.03808928,0.996071458,0.985999942,-2.41000009,-2.5999999,-3,-0.200000003,0,0,3.0999999,3,2.5,0,0,0,-1.697056e-05,1.697056e-05,0,0,0.30779016,-0.465418607,1.49586022,-2.21955037,1.49586022,0,-0,-2.2340095,0.0144590661,0,1515,1875,1510,1316,4.86000013,-4.80000019,21.6700001,0,0.0199999996,0.540000021,0,0,1,-0.000212132014,0.000212132014
4.995679,1783676947.522706,85,-2.83149219,-2.65059543,-0.7388134,0,0.0613732934,0.0122082504,0.990139902,0.278107077,4.88597918,-1.56601465,71.4250031,991.877014,0,0.558000028,0.706411064,3.54664183,0.456829786,2.95922494,0.249581277,0.587416887,0.995984197,1.00800002,-2.41000009,-2.5999999,-3,-0.200000003,0,0,3.0999999,3,2.5,0.00230197562,0.000701319019,-0.000162334443,-6.55618496e-05,6.85891719e-05,0,0,0.30779016,-0.465418607,1.49586022,-2.21955037,1.49586022,0,-0,-2.2340095,0.0144590661,0,1515,1875,1510,1316,4.86000013,-4.80000019,21.6700001,0,0.0199999996,0.540000021,0,0,1,-0.000848528056,0.000848528056
5.057959,1783676947.584986,86,-2.95666933,-2.52318478,-0.725509644,0,0.0371864997,-0.0147883948,0.996392429,0.00259381533,-7.1780014,1.52964425,71.4750061,991.877014,0,0.141000003,-0.850318015,2.13711667,0.337429255,3.09283614,-1.18774724,-0.955719471,0.995980263,1.00899994,-2.41000009,-2.5999999,-3,-0.200000003,0,0,3.0999999,3,2.5,-0.00282743643,0.000211946375,6.29425074e-07,6.50878792e-05,-7.44000772e-06,0,0,0.30779016,-0.465418607,1.49586022,-2.21955037,1.49586022,0,-0,-2.2340095,0.0144590661,0,1515,1875,1510,1316,4.86000013,-4.80000019,21.6700001,0,0.0199999996,0.540000021,0,0,1,0.000636396115,-0.000636396115
5.089964,1783676947.616992,87,-2.96978498,-2.83380842,-0.710426331,0,0.023666868,0.0038370348,0.994601309,-0.0716732219,6.85449171,-0.32193017,71.5250015,991.877014,0,0.752000034,0.221038133,1.3631047,0.319936424,2.78407741,-0.0988982916,-1.4209727,0.995984197,1.00800002,-2.41000009,-2.5999999,-3,-0.200000003,0,0,3.0999999,3,2.5,-0.000925237895,4.58492359e-05,0.000129089356,-5.18443267e-05,5.0957904e-05,0,0,0.30779016,-0.465418607,1.49586022,-2.21955037,1.49586022,0,-0,-2.2340095,0.0144590661,0,1515,1875,1510,1316,4.86000013,-4.80000019,21.6700001,0,0.0199999996,0.540000021,0,0,1,-0.000636396115,0.000636396115
5.152384,1783676947.679412,88,-3.04490924,-2.49192691,-0.742326736,0,0.0776350945,-0.0102838855,0.993273854,-0.0457114242,-3.82190275,0.418179333,71.5750046,991.924622,0,0.276000023,-0.593192101,4.46896029,0.24798663,3.11450171,-0.841178715,1.35445857,0.995754123,1.06599998,-2.41000009,-2.5999999,-3,-0.200000003,0,0,3.0999999,3,2.5,-0.000345715292,-0.000380178564,7.09533706e-05,-5.53236605e-05,5.46117662e-05,0,0,0.30779016,-0.465418607,1.49586022,-2.21955037,1.49586022,0,-0,-2.2340095,0.0144590661,0,1515,1875,1510,1316,4.86000013,-4.80000019,21.6700001,0,0.0199999996,0.540000021,0,0,1,0.000424264028,-0.000424264028
5.244033,1783676947.771060,89,-3.05668998,-2.8179462,-0.708703995,0,0.0149368653,0.00977340806,0.99582392,0.11190965,-0.148495197,-0.306887746,71.625,991.924622,0,0.114000008,0.562305331,0.859302402,0.231330141,2.80188751,0.330975175,-1.94258511,0.996059656,0.988999963,-2.41000009,-2.5999999,-3,-0.200000003,0,0,3.0999999,3,2.5,0,0,0,1.697056e-05,-1.697056e-05,0,0,0.30779016,-0.465418607,1.49586022,-2.21955037,1.49586022,0,-0,-2.2340095,0.0144590661,0,1515,1875,1510,1316,4.86000013,-4.80000019,21.6700001,0,0.0199999996,0.540000021,0,0,1,0.000212132014,-0.000212132014
5.275068,1783676947.802096,90,-3.09857345,-2.69811893,-0.743297577,0,0.0704058185,-0.00293723447,0.993648946,-0.22065787,3.86144733,-0.915290356,71.6750031,991.924622,0,0.548000038,-0.169366315,4.05294895,0.192202851,2.90946841,-0.361569166,1.14348054,0.995984197,1.00800002,-2.41000009,-2.5999999,-3,-0.200000003,0,0,3.0999999,3,2.5,0.000568685529,1.26810373e-05,-2.67791766e-05,-1.63973255e-05,5.09244674e-05,0,0,0.30779016,-0.465418607,1.49586022,-2.21955037,1.49586022,0,-0,-2.2340095,0.0144590661,0,1515,1875,1510,1316,4.86000013,-4.80000019,21.6700001,0,0.0199999996,0.540000021,0,0,1,-0.000212132014,0.000636396057
5.321003,1783676947.848031,91,-3.10047793,-2.63377619,-0.725599289,0,0.0422215909,0.0104003875,0.994176447,0.324941874,-5.79176044,1.15255749,71.7250061,991.924622,0,0.123000003,0.599366963,2.43169498,0.187191024,2.98060751,0.412175953,-0.548912525,0.995984197,1.00800002,-2.41000009,-2.5999999,-3,-0.200000003,0,0,3.0999999,3,2.5,-0.00111850444,0.000165076563,-1.21879584e-05,4.97842302e-05,-1.68041624e-05,0,0,0.30779016,-0.465418607,1.49586022,-2.21955037,1.49586022,0,-0,-2.2340095,0.0144590661,0,1515,1875,1510,1316,4.86000013,-4.80000019,21.6700001,0,0.0199999996,0.540000021,0,0,1,0.000636396057,-0.000212132014
5.383936,1783676947.910964,92,-3.14375949,-2.86374354,-0.720371246,0,0.0351170413,-0.00602371106,0.996055245,-0.20902589,5.78127337,-0.491821468,71.7750015,991.924622,0,0.745000064,-0.346495867,2.01915359,0.147546738,2.75137329,-0.494042605,-0.732219696,0.99598819,1.00699997,-2.41000009,-2.5999999,-3,-0.200000003,0,0,3.0999999,3,2.5,0.000707679428,0.000238402572,6.5059663e-05,7.12633152e-07,3.41811901e-05,0,0,0.30779016,-0.465418607,1.49586022,-2.21955037,1.49586022,0,-0,-2.2340095,0.0144590661,0,1515,1875,1510,1316,4.86000013,-4.80000019,21.6700001,0,0.0199999996,0.540000021,0,0,1,-0,0.000424264028
5.445686,1783676947.972713,93,-3.13604307,-2.56810212,-0.741989136,0,0.0715473518,0.00807015784,0.991572022,0.0673155189,-3.67134213,0.210167229,71.8250046,991.91272,0,0.309000015,0.466305763,4.12691545,0.152020261,3.03971553,0.314285517,1.08719993,0.99598819,1.00699997,-2.41000009,-2.5999999,-3,-0.200000003,0,0,3.0999999,3,2.5,-0.000219404712,-8.0540929e-05,0.000164165496,1.674962e-05,-1.70516651e-05,0,0,0.30779016,-0.465418607,1.49586022,-2.21955037,1.49586022,0,-0,-2.2340095,0.0144590661,0,1515,1875,1510,1316,4.86000013,-4.80000019,21.6700001,0,0.0199999996,0.540000021,0,0,1,0.000212132014,-0.000212132014
5.520405,1783676948.047432,94,-3.17084765,-2.83288121,-0.719638824,0,0.0219686516,-0.00505333813,0.997751474,0.0953571051,0.72014451,-0.216722235,71.875,991.91272,0,0.0950000063,-0.290184975,1.26132762,0.120135821,2.78546119,-0.410320789,-1.52413356,0.995956361,1.0150001,-2.41000009,-2.5999999,-3,-0.200000003,0,0,3.0999999,3,2.5,0,0,0,3.39411199e-05,0,0,0,0.30779016,-0.465418607,1.49586022,-2.21955037,1.49586022,0,-0,-2.2340095,0.0144590661,0,1515,1875,1510,1316,4.86000013,-4.80000019,21.6700001,0,0.0199999996,0.540000021,0,0,1,0.000424264028,-0
5.551708,1783676948.078735,95,-3.16157198,-2.69143558,-0.742294312,0,0.0698272958,0.0072795446,0.99214983,-0.441514641,2.46220875,-0.572860897,71.9250031,991.91272,0,0.511000037,0.420379728,4.02571869,0.126572549,2.91628861,0.293807179,1.10943007,0.995984197,1.00800002,-2.41000009,-2.5999999,-3,-0.200000003,0,0,3.0999999,3,2.5,0.000751211657,-0.00016651288,-7.11822504e-05,1.77277816e-05,-1.71384054e-05,0,0,0.30779016,-0.465418607,1.49586022,-2.21955037,1.49586022,0,-0,-2.2340095,0.0144590661,0,1515,1875,1510,1316,4.86000013,-4.80000019,21.6700001,0,0.0199999996,0.540000021,0,0,1,0.000212132014,-0.000212132014
5.614928,1783676948.141955,96,-3.18168259,-2.66861033,-0.729906082,0,0.0411284044,-0.00455917558,0.995564878,0.523146749,-4.48561716,0.741442323,71.9750061,991.91272,0,0.112000003,-0.262383401,2.36561203,0.109134994,2.94590163,-0.371518403,-0.580289602,0.995980263,1.00899994,-2.41000009,-2.5999999,-3,-0.200000003,0,0,3.0999999,3,2.5,-0.000648289919,4.88794612e-05,-4.48608407e-05,9.71486443e-05,-8.7522727e-05,0,0,0.30779016,-0.465418607,1.49586022,-2.21955037,1.49586022,0,-0,-2.2340095,0.0144590661,0,1515,1875,1510,1316,4.86000013,-4.80000019,21.6700001,0,0.0199999996,0.540000021,0,0,1,0.000636396057,0.000212132014
5.676505,1783676948.203532,97,-3.19084859,-2.83164024,-0.726594925,0,0.0413390435,0.00644643838,0.994462252,-0.629562497,4.88382244,-0.409903854,72.0250015,991.91272,0,0.702000022,0.371405274,2.38032174,0.0973762944,2.78215122,0.274028987,-0.401829481,0.99598819,1.00699997,-2.41000009,-2.5999999,-3,-0.200000003,0,0,3.0999999,3,2.5,0.000643311767,-0.000178637812,0.000116844181,1.76183748e-05,1.6790671e-05,0,0,0.30779016,-0.465418607,1.49586022,-2.21955037,1.49586022,0,-0,-2.2340095,0.0144590661,0,1515,1875,1510,1316,4.86000013,-4.80000019,21.6700001,0,0.0199999996,0.540000021,0,0,1,0.000212132014,0.000212132014
