pc_elapsed_s,pc_unix_s,frame_index,roll_deg,pitch_deg,yaw_deg,altitude_m,accel_x_g,accel_y_g,accel_z_g,gyro_x_dps,gyro_y_dps,gyro_z_dps,fc_time_s,imu_irq_hz,imu_poll_hz,imu_age_ms,roll_acc_deg,pitch_acc_deg,roll_gyro_deg,pitch_gyro_deg,roll_residual_deg,pitch_residual_deg,attitude_cf_alpha,attitude_dt_ms,coax_roll_rate_kd,coax_pitch_rate_kd,coax_yaw_angle_kp,coax_yaw_rate_kd,coax_vel_x_kd,coax_vel_y_kd,coax_vel_z_kd,coax_accel_xy_limit_m_s2,coax_accel_z_limit_m_s2,nav_acc_x_m_s2,nav_acc_y_m_s2,nav_acc_z_m_s2,vel_est_x_m_s,vel_est_y_m_s,vel_ref_x_m_s,vel_ref_y_m_s,vel_err_x_m_s,vel_err_y_m_s,vel_pid_out_x_m_s2,vel_pid_out_y_m_s2,vel_pid_p_x_m_s2,vel_pid_i_x_m_s2,vel_pid_d_x_m_s2,vel_pid_p_y_m_s2,vel_pid_i_y_m_s2,vel_pid_d_y_m_s2,servo_alpha_us,servo_beta_us,motor_upper_us,motor_lower_us,vel_loop_x_kp,vel_loop_y_kp,vel_loop_output_limit_m_s2,vel_loop_x_ki,vel_loop_y_ki,vel_loop_i_limit_m_s2,vel_loop_x_kd,vel_loop_y_kd,vel_loop_enable,flow_raw_vx_m_s,flow_raw_vy_m_s
0.144244,1783678204.183336,1,-2.74561334,-2.87272429,-2.82597923,0,0.049716495,0.00587371038,0.994909108,0.0393630117,0.0233135838,0.0127699319,429.117035,991.821472,0,0.075000003,0.338256955,2.86069179,0.331659883,2.84427524,0.00659707189,0.0164165497,0.995781898,1.05900002,-1.60000002,-1.60000002,-3,-0.200000003,0,0,3.0999999,3,2.5,0,0,0,1.697056e-05,-1.697056e-05,0,0,-0.0430538096,-0.136512905,-0.258322865,-0.818422794,-0.258322865,0,-0,-0.819077432,0.00065461616,0,1457,1803,1465,1386,6,-6,21.6700001,0,0.0199999996,0.540000021,0,0,1,0.000212132014,-0.000212132014
0.206327,1783678204.245419,2,-2.74601269,-2.87756324,-2.82647324,0,0.0485877544,0.00523509411,0.994508803,0.0184073374,-0.0678584352,-0.0150679359,429.167023,991.845276,0,0.651000023,0.301602185,2.79698181,0.331408024,2.8396771,-0.0298058391,-0.0426952839,0.995980263,1.00899994,-1.60000002,-1.60000002,-3,-0.200000003,0,0,3.0999999,3,2.5,0,0,0,3.39411199e-05,0,0,0,-0.0430538096,-0.136512905,-0.258322865,-0.818422794,-0.258322865,0,-0,-0.819077432,0.00065461616,0,1457,1803,1465,1386,6,-6,21.6700001,0,0.0199999996,0.540000021,0,0,1,0.000424264028,-0
0.237930,1783678204.277022,3,-2.74372816,-2.88698721,-2.82651329,0,0.0494444147,0.00587830553,0.994506001,0.0252660625,0.0855137855,-0.0159707367,429.21701,991.845276,0,0.24000001,0.33865878,2.84621358,0.333552718,2.83001781,0.0051060617,0.0161957741,0.996059656,0.988999963,-1.60000002,-1.60000002,-3,-0.200000003,0,0,3.0999999,3,2.5,0,0,0,3.39411199e-05,3.39411199e-05,0,0,-0.0430538096,-0.136512905,-0.258322865,-0.818422794,-0.258322865,0,-0,-0.819077432,0.00065461616,0,1457,1803,1465,1386,6,-6,21.6700001,0,0.0199999996,0.540000021,0,0,1,0.000424264028,0.000424264028
0.300924,1783678204.340016,4,-2.74247885,-2.8853128,-2.8266716,0,0.0483489893,0.00541674439,0.994502604,0.0259801559,-0.0548356697,0.0385524035,429.267029,991.845276,0,0.834000051,0.312069088,2.78327346,0.334914207,2.83195162,-0.0228451192,-0.0486781597,0.995976269,1.00999999,-1.60000002,-1.60000002,-3,-0.200000003,0,0,3.0999999,3,2.5,0,0,0,0,0,0,0,-0.0430538096,-0.136512905,-0.258322865,-0.818422794,-0.258322865,0,-0,-0.819077432,0.00065461616,0,1457,1803,1465,1386,6,-6,21.6700001,0,0.0199999996,0.540000021,0,0,1,-0,-0
0.362152,1783678204.401244,5,-2.74582338,-2.89659333,-2.82722664,0,0.0490342937,0.00588123221,0.99392873,0.0278234687,0.00705179852,-0.00248364545,429.317017,991.845276,0,0.425000012,0.339024186,2.82428026,0.331447244,2.82046008,0.00757694244,0.00382018089,0.995980263,1.00899994,-1.60000002,-1.60000002,-3,-0.200000003,0,0,3.0999999,3,2.5,0,0,0,1.697056e-05,1.697056e-05,0,0,-0.0430538096,-0.136512905,-0.258322865,-0.818422794,-0.258322865,0,-0,-0.819077432,0.00065461616,0,1457,1803,1465,1386,6,-6,21.6700001,0,0.0199999996,0.540000021,0,0,1,0.000212132014,0.000212132014
0.423721,1783678204.462813,6,-2.74702263,-2.89050055,-2.82778549,0,0.0508668087,0.00500681577,0.994102895,-0.013048619,0.0337280482,-0.0235656239,429.367035,991.845276,0,0.0780000016,0.288568705,2.92915058,0.3304407,2.82616901,-0.0418719947,0.102981567,0.996123135,0.97299999,-1.60000002,-1.60000002,-3,-0.200000003,0,0,3.0999999,3,2.5,5.89996598e-05,-8.07521501e-05,1.95121775e-05,3.39985272e-05,3.38625468e-05,0,0,-0.0430538096,-0.136512905,-0.258322865,-0.818422794,-0.258322865,0,-0,-0.819077432,0.00065461616,0,1457,1803,1465,1386,6,-6,21.6700001,0,0.0199999996,0.540000021,0,0,1,0.000424264028,0.000424264028
0.485224,1783678204.524316,7,-2.74701643,-2.88949823,-2.82807732,0,0.0486502573,0.00584553508,0.994361341,0.0377029255,-0.13520962,-0.0569019318,429.417023,991.85321,0,0.613000035,0.336819857,2.80097938,0.330258161,2.82767773,0.00656169653,-0.0266983509,0.995984197,1.00800002,-1.60000002,-1.60000002,-3,-0.200000003,0,0,3.0999999,3,2.5,0,0,0,6.78822471e-05,3.39411272e-05,0,0,-0.0430538096,-0.136512905,-0.258322865,-0.818422794,-0.258322865,0,-0,-0.819077432,0.00065461616,0,1457,1803,1465,1386,6,-6,21.6700001,0,0.0199999996,0.540000021,0,0,1,0.000848528114,0.000424264115
0.547775,1783678204.586867,8,-2.74911022,-2.89201784,-2.82814789,0,0.0482347272,0.00531570055,0.994404554,-0.0155374641,0.0523704998,0.0291390698,429.46701,991.85321,0,0.203000009,0.30627808,2.77698088,0.328279227,2.82524467,-0.0220011473,-0.0482637882,0.995984197,1.00800002,-1.60000002,-1.60000002,-3,-0.200000003,0,0,3.0999999,3,2.5,0,0,0,1.697056e-05,1.697056e-05,0,0,-0.0430538096,-0.136512905,-0.258322865,-0.818422794,-0.258322865,0,-0,-0.819077432,0.00065461616,0,1457,1803,1465,1386,6,-6,21.6700001,0,0.0199999996,0.540000021,0,0,1,0.000212132014,0.000212132014
0.607795,1783678204.646886,9,-2.74982882,-2.88597608,-2.82814217,0,0.0507835187,0.00544638559,0.994252384,0.040814206,-0.0497251153,0.0285027474,429.517029,991.85321,0,0.800000012,0.313855708,2.92391706,0.327527285,2.83071804,-0.013671577,0.0931990147,0.995980263,1.00899994,-1.60000002,-1.60000002,-3,-0.200000003,0,0,3.0999999,3,2.5,0,0,0,3.39411199e-05,3.39411199e-05,0,0,-0.0430538096,-0.136512905,-0.258322865,-0.818422794,-0.258322865,0,-0,-0.819077432,0.00065461616,0,1457,1803,1465,1386,6,-6,21.6700001,0,0.0199999996,0.540000021,0,0,1,0.000424264028,0.000424264028
0.639310,1783678204.678402,10,-2.74714756,-2.87531018,-2.82849121,0,0.0498490334,0.00623380113,0.994509935,-0.0178814735,0.0297790803,0.00629755994,429.567017,991.85321,0,0.391000032,0.359137505,2.86944842,0.330036491,2.84164667,0.0291010141,0.0278017521,0.995980263,1.00899994,-1.60000002,-1.60000002,-3,-0.200000003,0,0,3.0999999,3,2.5,0,0,0,0,0,0,0,-0.0430538096,-0.136512905,-0.258322865,-0.818422794,-0.258322865,0,-0,-0.819077432,0.00065461616,0,1457,1803,1465,1386,6,-6,21.6700001,0,0.0199999996,0.540000021,0,0,1,-0,-0
0.716324,1783678204.755415,11,-2.74588776,-2.87024713,-2.82867622,0,0.0497122593,0.00581309153,0.994526923,0.0439091772,-0.0107270684,0.0121833794,429.617035,991.85321,0,0.0890000015,0.334894717,2.86154675,0.331400126,2.84676552,0.00349459052,0.0147812366,0.996210456,0.951000035,-1.60000002,-1.60000002,-3,-0.200000003,0,0,3.0999999,3,2.5,9.51057737e-05,8.8721441e-05,7.93647778e-05,3.40315637e-05,3.40254956e-05,0,0,-0.0430538096,-0.136512905,-0.258322865,-0.818422794,-0.258322865,0,-0,-0.819077432,0.00065461616,0,1457,1803,1465,1386,6,-6,21.6700001,0,0.0199999996,0.540000021,0,0,1,0.000424264028,0.000424264028
0.779835,1783678204.818926,12,-2.7457695,-2.87840962,-2.82844162,0,0.0483161993,0.00583283231,0.994204164,0.0125029385,-0.00465676375,-0.0126546249,429.667023,991.857178,0,0.577000022,0.33614105,2.7822156,0.331513375,2.83888102,0.00462767482,-0.0566654205,0.996083379,0.98300004,-1.60000002,-1.60000002,-3,-0.200000003,0,0,3.0999999,3,2.5,0,0,0,5.09116835e-05,1.697056e-05,0,0,-0.0430538096,-0.136512905,-0.258322865,-0.818422794,-0.258322865,0,-0,-0.819077432,0.00065461616,0,1457,1803,1465,1386,6,-6,21.6700001,0,0.0199999996,0.540000021,0,0,1,0.000636396057,0.000212132014
0.811046,1783678204.850138,13,-2.74896765,-2.88233995,-2.82895851,0,0.0490660816,0.00508940686,0.994481444,0.0183974076,0.0210396424,-0.0374047086,429.71701,991.857178,0,0.164000005,0.293217123,2.8245523,0.328475058,2.83476973,-0.0352579355,-0.0102174282,0.995984197,1.00800002,-1.60000002,-1.60000002,-3,-0.200000003,0,0,3.0999999,3,2.5,0,0,0,6.78822398e-05,6.78822398e-05,0,0,-0.0430538096,-0.136512905,-0.258322865,-0.818422794,-0.258322865,0,-0,-0.819077432,0.00065461616,0,1457,1803,1465,1386,6,-6,21.6700001,0,0.0199999996,0.540000021,0,0,1,0.000848528056,0.000848528056
0.887540,1783678204.926632,14,-2.75038767,-2.88355827,-2.82894897,0,0.050039798,0.0058747516,0.994560242,-0.000726696104,-0.0384593047,0.0365409516,429.767029,991.857178,0,0.758000016,0.33843556,2.88027167,0.326866776,2.83332181,0.0115687847,0.0469498634,0.995980263,1.00899994,-1.60000002,-1.60000002,-3,-0.200000003,0,0,3.0999999,3,2.5,0,0,0,5.09116835e-05,1.697056e-05,0,0,-0.0430538096,-0.136512905,-0.258322865,-0.818422794,-0.258322865,0,-0,-0.819077432,0.00065461616,0,1457,1803,1465,1386,6,-6,21.6700001,0,0.0199999996,0.540000021,0,0,1,0.000636396057,0.000212132014
0.953972,1783678204.993064,15,-2.74949217,-2.89014077,-2.82888985,0,0.0490375943,0.00523733813,0.994089782,0.0327102356,0.00706723984,-0.0172398426,429.817017,991.857178,0,0.341000021,0.301858634,2.82402325,0.327913463,2.82693958,-0.0260548294,-0.00291633606,0.995980263,1.00899994,-1.60000002,-1.60000002,-3,-0.200000003,0,0,3.0999999,3,2.5,0,0,0,0,0,0,0,-0.0430538096,-0.136512905,-0.258322865,-0.818422794,-0.258322865,0,-0,-0.819077432,0.00065461616,0,1457,1803,1465,1386,6,-6,21.6700001,0,0.0199999996,0.540000021,0,0,1,-0,-0
0.984736,1783678205.023828,16,-2.74880695,-2.89556265,-2.8295517,0,0.0485249087,0.00597647205,0.993709385,-0.00918849558,-0.078755118,-0.00179238804,429.867035,991.857178,0,0.088000007,0.344590157,2.79560161,0.32843253,2.82160497,0.0161576271,-0.0260033607,0.996194601,0.954999983,-1.60000002,-1.60000002,-3,-0.200000003,0,0,3.0999999,3,2.5,-3.48275898e-05,0.000147811181,-1.81961059e-05,-3.32603491e-08,1.41159674e-07,0,0,-0.0430538096,-0.136512905,-0.258322865,-0.818422794,-0.258322865,0,-0,-0.819077432,0.00065461616,0,1457,1803,1465,1386,6,-6,21.6700001,0,0.0199999996,0.540000021,0,0,1,-0,-0
1.047039,1783678205.086131,17,-2.74566317,-2.90087795,-2.82907295,0,0.0488566756,0.00551407412,0.994843781,0.016347941,0.022055123,0.0232264511,429.917023,991.821472,0,0.533000052,0.317567378,2.81148791,0.331694633,2.81620979,-0.0141272545,-0.00472187996,0.995984197,1.00800002,-1.60000002,-1.60000002,-3,-0.200000003,0,0,3.0999999,3,2.5,0,0,0,-1.697056e-05,1.697056e-05,0,0,-0.0430538096,-0.136512905,-0.258322865,-0.818422794,-0.258322865,0,-0,-0.819077432,0.00065461616,0,1457,1803,1465,1386,6,-6,21.6700001,0,0.0199999996,0.540000021,0,0,1,-0.000212132014,0.000212132014
1.124744,1783678205.163836,18,-2.7486105,-2.899858,-2.82838821,0,0.0491098985,0.00553837558,0.994494498,0.0327915102,0.0373747796,0.0226497203,429.96701,991.821472,0,0.115000002,0.319078952,2.82702661,0.328729272,2.8171711,-0.00965031981,0.0098555088,0.995984197,1.00800002,-1.60000002,-1.60000002,-3,-0.200000003,0,0,3.0999999,3,2.5,0,0,0,1.697056e-05,5.09116835e-05,0,0,-0.0430538096,-0.136512905,-0.258322865,-0.818422794,-0.258322865,0,-0,-0.819077432,0.00065461616,0,1457,1803,1465,1386,6,-6,21.6700001,0,0.0199999996,0.540000021,0,0,1,0.000212132014,0.000636396057
1.156744,1783678205.195836,19,-2.74888659,-2.89349961,-2.82866096,0,0.0498954169,0.00527871633,0.994642735,0.0327051729,-0.10761328,0.0250967648,430.017029,991.821472,0,0.713000059,0.304074347,2.87174678,0.328512609,2.82337499,-0.024438262,0.0483717918,0.995984197,1.00800002,-1.60000002,-1.60000002,-3,-0.200000003,0,0,3.0999999,3,2.5,0,0,0,0,0,0,0,-0.0430538096,-0.136512905,-0.258322865,-0.818422794,-0.258322865,0,-0,-0.819077432,0.00065461616,0,1457,1803,1465,1386,6,-6,21.6700001,0,0.0199999996,0.540000021,0,0,1,-0,-0
1.220481,1783678205.259573,20,-2.75154495,-2.89270997,-2.82835579,0,0.0496415868,0.0058734729,0.994589746,0.0237689223,0.0210015085,0.000105669722,430.067017,991.821472,0,0.299000025,0.338351876,2.85730433,0.325705141,2.82422566,0.0126467347,0.0330786705,0.995976269,1.00999999,-1.60000002,-1.60000002,-3,-0.200000003,0,0,3.0999999,3,2.5,0,0,0,0,0,0,0,-0.0430538096,-0.136512905,-0.258322865,-0.818422794,-0.258322865,0,-0,-0.819077432,0.00065461616,0,1457,1803,1465,1386,6,-6,21.6700001,0,0.0199999996,0.540000021,0,0,1,-0,-0
1.282609,1783678205.321700,21,-2.75009608,-2.88904595,-2.82844543,0,0.0486613363,0.00592127349,0.994397283,0.0214439966,-0.0720967278,0.0317296609,430.117035,991.821472,0,0.841000021,0.341171473,2.80151343,0.327145964,2.82813454,0.0140255094,-0.0266211033,0.995797753,1.05499995,-1.60000002,-1.60000002,-3,-0.200000003,0,0,3.0999999,3,2.5,3.87579203e-05,9.63816055e-05,1.1272431e-05,3.79440053e-08,9.43575955e-08,0,0,-0.0430538096,-0.136512905,-0.258322865,-0.818422794,-0.258322865,0,-0,-0.819077432,0.00065461616,0,1457,1803,1465,1386,6,-6,21.6700001,0,0.0199999996,0.540000021,0,0,1,-0,-0
1.343391,1783678205.382483,22,-2.75177503,-2.89527035,-2.82805061,0,0.0479060188,0.00567070255,0.993728459,0.0210649911,0.0169818401,-0.00432216562,430.167023,991.805603,0,0.486000031,0.326954305,2.75995374,0.325520247,2.82204795,0.00143405795,-0.0620942116,0.995980263,1.00899994,-1.60000002,-1.60000002,-3,-0.200000003,0,0,3.0999999,3,2.5,0,0,0,5.09116835e-05,1.697056e-05,0,0,-0.0430538096,-0.136512905,-0.258322865,-0.818422794,-0.258322865,0,-0,-0.819077432,0.00065461616,0,1457,1803,1465,1386,6,-6,21.6700001,0,0.0199999996,0.540000021,0,0,1,0.000636396057,0.000212132014
1.405720,1783678205.444812,23,-2.75120497,-2.89419961,-2.82928658,0,0.0507712327,0.00602945546,0.994822621,0.0151216574,0.0489414521,-0.0249941498,430.21701,991.805603,0,0.077000007,0.347256005,2.92152834,0.326010644,2.82247114,0.0212453604,0.0990571976,0.995984197,1.00800002,-1.60000002,-1.60000002,-3,-0.200000003,0,0,3.0999999,3,2.5,0,0,0,0,0,0,0,-0.0430538096,-0.136512905,-0.258322865,-0.818422794,-0.258322865,0,-0,-0.819077432,0.00065461616,0,1457,1803,1465,1386,6,-6,21.6700001,0,0.0199999996,0.540000021,0,0,1,-0,-0
1.450796,1783678205.489888,24,-2.7525146,-2.9024229,-2.82959557,0,0.0492542535,0.00532055367,0.9944911,0.0462603718,-0.0402704366,0.0113533642,430.267029,991.805603,0,0.701000035,0.306530982,2.83533597,0.324859947,2.81456232,-0.0183289647,0.0207736492,0.995984197,1.00800002,-1.60000002,-1.60000002,-3,-0.200000003,0,0,3.0999999,3,2.5,0,0,0,1.697056e-05,-1.697056e-05,0,0,-0.0430538096,-0.136512905,-0.258322865,-0.818422794,-0.258322865,0,-0,-0.819077432,0.00065461616,0,1457,1803,1465,1386,6,-6,21.6700001,0,0.0199999996,0.540000021,0,0,1,0.000212132014,-0.000212132014
1.511679,1783678205.550771,25,-2.75225616,-2.90336752,-2.82966805,0,0.0490412153,0.00581127126,0.994053364,0.0164659228,0.0801729858,0.0202581417,430.317017,991.805603,0,0.258000016,0.334949344,2.8243258,0.325004876,2.81365824,0.00994446874,0.0106675625,0.995984197,1.00800002,-1.60000002,-1.60000002,-3,-0.200000003,0,0,3.0999999,3,2.5,0,0,0,-3.39411199e-05,0,0,0,-0.0430538096,-0.136512905,-0.258322865,-0.818422794,-0.258322865,0,-0,-0.819077432,0.00065461616,0,1457,1803,1465,1386,6,-6,21.6700001,0,0.0199999996,0.540000021,0,0,1,-0.000424264028,-0
1.588018,1783678205.627110,26,-2.75165439,-2.89687133,-2.82984734,0,0.0496370085,0.00503934221,0.994659305,-0.0106170457,-0.0110386917,-0.0078690201,430.367035,991.805603,0,0.85800004,0.290280879,2.85685515,0.325789869,2.82004905,-0.0355089903,0.0368061066,0.995968342,1.01199996,-1.60000002,-1.60000002,-3,-0.200000003,0,0,3.0999999,3,2.5,4.85318924e-05,-8.03701641e-06,-2.24304204e-05,-3.38923928e-05,3.39330509e-05,0,0,-0.0430538096,-0.136512905,-0.258322865,-0.818422794,-0.258322865,0,-0,-0.819077432,0.00065461616,0,1457,1803,1465,1386,6,-6,21.6700001,0,0.0199999996,0.540000021,0,0,1,-0.000424264028,0.000424264028
1.663662,1783678205.702754,27,-2.75470304,-2.90078974,-2.83002663,0,0.0484874435,0.00475644087,0.994881988,0.000479251146,0.00495721214,-0.0176574457,430.417023,991.849243,0,0.450000018,0.273923874,2.79017806,0.322794497,2.81638432,-0.0488706231,-0.026206255,0.995980263,1.00899994,-1.60000002,-1.60000002,-3,-0.200000003,0,0,3.0999999,3,2.5,0,0,0,1.697056e-05,1.697056e-05,0,0,-0.0430538096,-0.136512905,-0.258322865,-0.818422794,-0.258322865,0,-0,-0.819077432,0.00065461616,0,1457,1803,1465,1386,6,-6,21.6700001,0,0.0199999996,0.540000021,0,0,1,0.000212132014,0.000212132014
1.695399,1783678205.734490,28,-2.75409603,-2.90555286,-2.83038521,0,0.0489676408,0.0058097248,0.993952513,0.0406516194,0.0385159403,-0.0152856549,430.46701,991.849243,0,0.102000006,0.33489418,2.82038116,0.323157728,2.81148005,0.0117364526,0.00890111923,0.995980263,1.00899994,-1.60000002,-1.60000002,-3,-0.200000003,0,0,3.0999999,3,2.5,0,0,0,0,0,0,0,-0.0430538096,-0.136512905,-0.258322865,-0.818422794,-0.258322865,0,-0,-0.819077432,0.00065461616,0,1457,1803,1465,1386,6,-6,21.6700001,0,0.0199999996,0.540000021,0,0,1,-0,-0
1.755729,1783678205.794821,29,-2.75491858,-2.90472245,-2.8303566,0,0.0494583584,0.00572544057,0.994151473,-0.0152182449,-0.0656219199,0.00218005665,430.517029,991.849243,0,0.627000034,0.329969764,2.84803057,0.322351873,2.81220222,0.00761789083,0.035828352,0.995980263,1.00899994,-1.60000002,-1.60000002,-3,-0.200000003,0,0,3.0999999,3,2.5,0,0,0,5.09116835e-05,1.697056e-05,0,0,-0.0430538096,-0.136512905,-0.258322865,-0.818422794,-0.258322865,0,-0,-0.819077432,0.00065461616,0,1457,1803,1465,1386,6,-6,21.6700001,0,0.0199999996,0.540000021,0,0,1,0.000636396057,0.000212132014
1.817130,1783678205.856221,30,-2.75506091,-2.91133332,-2.83045387,0,0.0482609682,0.00549819972,0.994011879,0.0119962674,0.126313269,-0.0175697096,430.567017,991.849243,0,0.216000006,0.316918164,2.7795825,0.322261453,2.80583978,-0.00534328818,-0.0262572765,0.996015966,1,-1.60000002,-1.60000002,-3,-0.200000003,0,0,3.0999999,3,2.5,0,0,0,5.09116871e-05,5.09116871e-05,0,0,-0.0430538096,-0.136512905,-0.258322865,-0.818422794,-0.258322865,0,-0,-0.819077432,0.00065461616,0,1457,1803,1465,1386,6,-6,21.6700001,0,0.0199999996,0.540000021,0,0,1,0.000636396115,0.000636396115
1.847646,1783678205.886738,31,-2.75351501,-2.91171622,-2.83083725,0,0.0500131398,0.00564945536,0.994317293,0.0261944644,-0.0831073299,0.0103027299,430.617035,991.849243,0,0.815000057,0.3255364,2.87944579,0.323778927,2.80505371,0.00175747275,0.0743920803,0.995984197,1.00800002,-1.60000002,-1.60000002,-3,-0.200000003,0,0,3.0999999,3,2.5,0,0,0,1.697056e-05,-1.697056e-05,0,0,-0.0430538096,-0.136512905,-0.258322865,-0.818422794,-0.258322865,0,-0,-0.819077432,0.00065461616,0,1457,1803,1465,1386,6,-6,21.6700001,0,0.0199999996,0.540000021,0,0,1,0.000212132014,-0.000212132014
1.953866,1783678205.992958,32,-2.74923587,-2.91349363,-2.83078194,0,0.0493865311,0.00590915699,0.994493783,0.063908726,-0.0113153784,0.00276762247,430.667023,991.805603,0,0.397000015,0.340440333,2.84292102,0.32801646,2.80342054,0.0124238729,0.0395004749,0.996087432,0.982000053,-1.60000002,-1.60000002,-3,-0.200000003,0,0,3.0999999,3,2.5,0,0,0,1.697056e-05,-1.697056e-05,0,0,-0.0430538096,-0.136512905,-0.258322865,-0.818422794,-0.258322865,0,-0,-0.819077432,0.00065461616,0,1457,1803,1465,1386,6,-6,21.6700001,0,0.0199999996,0.540000021,0,0,1,0.000212132014,-0.000212132014
1.999359,1783678206.038451,33,-2.75001884,-2.91052508,-2.83096886,0,0.0485837683,0.00576066365,0.993862748,-0.0036148224,0.041624181,0.0125867594,430.71701,991.805603,0,0.0720000044,0.332096189,2.79855967,0.3272627,2.80657578,0.00483348966,-0.00801610947,0.995968342,1.01199996,-1.60000002,-1.60000002,-3,-0.200000003,0,0,3.0999999,3,2.5,4.15188078e-05,-6.49313661e-05,2.09426889e-05,5.09537022e-05,1.6904849e-05,0,0,-0.0430538096,-0.136512905,-0.258322865,-0.818422794,-0.258322865,0,-0,-0.819077432,0.00065461616,0,1457,1803,1465,1386,6,-6,21.6700001,0,0.0199999996,0.540000021,0,0,1,0.000636396057,0.000212132014
2.030241,1783678206.069333,34,-2.74796295,-2.91498351,-2.83095741,0,0.0478713512,0.00570026878,0.994256675,0.013431753,-0.058935944,0.0275967158,430.767029,991.805603,0,0.584000051,0.328484386,2.75649643,0.329341531,2.80226898,-0.000857144594,-0.0457725525,0.995980263,1.00899994,-1.60000002,-1.60000002,-3,-0.200000003,0,0,3.0999999,3,2.5,0,0,0,3.39411199e-05,3.39411199e-05,0,0,-0.0430538096,-0.136512905,-0.258322865,-0.818422794,-0.258322865,0,-0,-0.819077432,0.00065461616,0,1457,1803,1465,1386,6,-6,21.6700001,0,0.0199999996,0.540000021,0,0,1,0.000424264028,0.000424264028
2.091201,1783678206.130292,35,-2.74706984,-2.91873145,-2.83124161,0,0.0482521169,0.00583636994,0.994133532,0.0629020408,0.0458854176,0.00788077433,430.817017,991.805603,0,0.173000008,0.336368799,2.77872872,0.330206335,2.79841638,0.00616246462,-0.0196876526,0.995980263,1.00899994,-1.60000002,-1.60000002,-3,-0.200000003,0,0,3.0999999,3,2.5,0,0,0,0,0,0,0,-0.0430538096,-0.136512905,-0.258322865,-0.818422794,-0.258322865,0,-0,-0.819077432,0.00065461616,0,1457,1803,1465,1386,6,-6,21.6700001,0,0.0199999996,0.540000021,0,0,1,-0,-0
2.153378,1783678206.192470,36,-2.74684477,-2.91816354,-2.83146095,0,0.0486985967,0.00488736993,0.994224787,0.0139728663,-0.000554701313,0.014116847,430.867035,991.805603,0,0.80400002,0.281650007,2.80415654,0.33065328,2.79888391,-0.0490032732,0.00527262688,0.995980263,1.00899994,-1.60000002,-1.60000002,-3,-0.200000003,0,0,3.0999999,3,2.5,0,0,0,1.697056e-05,-1.697056e-05,0,0,-0.0430538096,-0.136512905,-0.258322865,-0.818422794,-0.258322865,0,-0,-0.819077432,0.00065461616,0,1457,1803,1465,1386,6,-6,21.6700001,0,0.0199999996,0.540000021,0,0,1,0.000212132014,-0.000212132014
2.215744,1783678206.254836,37,-2.74471021,-2.92639303,-2.8318882,0,0.0477230735,0.00536062801,0.994268835,0.0370772332,-0.0376866832,-0.0218702964,430.917023,991.86908,0,0.361000031,0.30890882,2.7479434,0.332686394,2.79084826,-0.0237775743,-0.0429048538,0.995980263,1.00899994,-1.60000002,-1.60000002,-3,-0.200000003,0,0,3.0999999,3,2.5,0,0,0,5.09116871e-05,5.09116871e-05,0,0,-0.0430538096,-0.136512905,-0.258322865,-0.818422794,-0.258322865,0,-0,-0.819077432,0.00065461616,0,1457,1803,1465,1386,6,-6,21.6700001,0,0.0199999996,0.540000021,0,0,1,0.000636396115,0.000636396115
2.278329,1783678206.317421,38,-2.74266624,-2.92371082,-2.83238602,0,0.0488407798,0.00583076943,0.994075537,-0.023392655,-0.0133045921,0.00573210884,430.96701,991.86908,0,0.088000007,0.33606568,2.81273818,0.334629148,2.79327989,0.00143653154,0.0194582939,0.99598819,1.00699997,-1.60000002,-1.60000002,-3,-0.200000003,0,0,3.0999999,3,2.5,-5.29539611e-05,-5.7329089e-05,4.92668187e-05,-1.70238854e-05,1.69128289e-05,0,0,-0.0430538096,-0.136512905,-0.258322865,-0.818422794,-0.258322865,0,-0,-0.819077432,0.00065461616,0,1457,1803,1465,1386,6,-6,21.6700001,0,0.0199999996,0.540000021,0,0,1,-0.000212132014,0.000212132014
2.309302,1783678206.348394,39,-2.74590397,-2.92775369,-2.83255768,0,0.0482571796,0.00540047744,0.995273829,0.000213942491,-0.0504088625,0.017056223,431.017029,991.86908,0,0.558000028,0.310890883,2.77584767,0.331479818,2.78936934,-0.0205889344,-0.0135216713,0.995984197,1.00800002,-1.60000002,-1.60000002,-3,-0.200000003,0,0,3.0999999,3,2.5,0,0,0,3.39411199e-05,0,0,0,-0.0430538096,-0.136512905,-0.258322865,-0.818422794,-0.258322865,0,-0,-0.819077432,0.00065461616,0,1457,1803,1465,1386,6,-6,21.6700001,0,0.0199999996,0.540000021,0,0,1,0.000424264028,-0
2.372598,1783678206.411690,40,-2.74465227,-2.93544054,-2.83276176,0,0.0481440015,0.00602790527,0.995733738,0.000939429738,0.0494500957,-0.0276750978,431.067017,991.86908,0,0.138000011,0.346849084,2.76806045,0.332591325,2.78168297,0.0142577589,-0.0136225224,0.995980263,1.00899994,-1.60000002,-1.60000002,-3,-0.200000003,0,0,3.0999999,3,2.5,0,0,0,0,0,0,0,-0.0430538096,-0.136512905,-0.258322865,-0.818422794,-0.258322865,0,-0,-0.819077432,0.00065461616,0,1457,1803,1465,1386,6,-6,21.6700001,0,0.0199999996,0.540000021,0,0,1,-0,-0
2.447325,1783678206.486417,41,-2.74918079,-2.93589091,-2.83296394,0,0.0489054956,0.00599679211,0.994927168,-0.000891283154,0.0119027682,0.0013173013,431.117035,991.86908,0,0.739000022,0.345338553,2.81404948,0.328050852,2.78104496,0.0172877014,0.0330045223,0.995980263,1.00899994,-1.60000002,-1.60000002,-3,-0.200000003,0,0,3.0999999,3,2.5,0,0,0,3.39411199e-05,3.39411199e-05,0,0,-0.0430538096,-0.136512905,-0.258322865,-0.818422794,-0.258322865,0,-0,-0.819077432,0.00065461616,0,1457,1803,1465,1386,6,-6,21.6700001,0,0.0199999996,0.540000021,0,0,1,0.000424264028,0.000424264028
2.481401,1783678206.520493,42,-2.74960995,-2.93326163,-2.83291245,0,0.0489247851,0.0057424414,0.994572461,0.0431533717,0.0914535373,0.000559295528,431.167023,991.833374,0,0.323000014,0.330809504,2.81616426,0.327678561,2.78367662,0.00313094258,0.0324876308,0.99598819,1.00699997,-1.60000002,-1.60000002,-3,-0.200000003,0,0,3.0999999,3,2.5,0,0,0,0,0,0,0,-0.0430538096,-0.136512905,-0.258322865,-0.818422794,-0.258322865,0,-0,-0.819077432,0.00065461616,0,1457,1803,1465,1386,6,-6,21.6700001,0,0.0199999996,0.540000021,0,0,1,-0,-0
2.557589,1783678206.596681,43,-2.75187755,-2.93199277,-2.83343315,0,0.0488886796,0.00567945698,0.994695425,0.057488855,0.0261459723,0.0202714093,431.21701,991.833374,0,0.0890000015,0.327140719,2.81374288,0.325417042,2.78496671,0.00172367692,0.0287761688,0.996206403,0.951999962,-1.60000002,-1.60000002,-3,-0.200000003,0,0,3.0999999,3,2.5,-3.19182873e-05,-2.00557715e-05,3.59344485e-05,1.69401737e-05,5.08925914e-05,0,0,-0.0430538096,-0.136512905,-0.258322865,-0.818422794,-0.258322865,0,-0,-0.819077432,0.00065461616,0,1457,1803,1465,1386,6,-6,21.6700001,0,0.0199999996,0.540000021,0,0,1,0.000212132014,0.000636396057
2.618889,1783678206.657981,44,-2.75318289,-2.92594028,-2.83323288,0,0.049291309,0.00528080482,0.994498014,-0.0218248554,-0.0586254634,0.00147086754,431.267029,991.833374,0,0.513000011,0.304238915,2.83744669,0.324198425,2.79094148,-0.0199595094,0.0465052128,0.995980263,1.00899994,-1.60000002,-1.60000002,-3,-0.200000003,0,0,3.0999999,3,2.5,0,0,0,3.39411272e-05,6.78822471e-05,0,0,-0.0430538096,-0.136512905,-0.258322865,-0.818422794,-0.258322865,0,-0,-0.819077432,0.00065461616,0,1457,1803,1465,1386,6,-6,21.6700001,0,0.0199999996,0.540000021,0,0,1,0.000424264115,0.000848528114
2.681517,1783678206.720609,45,-2.75374603,-2.92621136,-2.83349991,0,0.0498065203,0.0056312196,0.994169712,0.00342755858,0.0383879095,-0.0134047791,431.317017,991.833374,0,0.102000006,0.32453379,2.86799526,0.323551118,2.79054618,0.000982671976,0.0774490833,0.995980263,1.00899994,-1.60000002,-1.60000002,-3,-0.200000003,0,0,3.0999999,3,2.5,0,0,0,-5.09116871e-05,5.09116871e-05,0,0,-0.0430538096,-0.136512905,-0.258322865,-0.818422794,-0.258322865,0,-0,-0.819077432,0.00065461616,0,1457,1803,1465,1386,6,-6,21.6700001,0,0.0199999996,0.540000021,0,0,1,-0.000636396115,0.000636396115
2.713528,1783678206.752620,46,-2.75259042,-2.92063546,-2.8340435,0,0.0484078042,0.00550685544,0.994718194,0.0115732169,-0.0831640437,-0.015512377,431.367035,991.833374,0,0.704000056,0.31719172,2.7860496,0.324741036,2.79647517,-0.00754931569,-0.0104255676,0.995980263,1.00899994,-1.60000002,-1.60000002,-3,-0.200000003,0,0,3.0999999,3,2.5,0,0,0,0,0,0,0,-0.0430538096,-0.136512905,-0.258322865,-0.818422794,-0.258322865,0,-0,-0.819077432,0.00065461616,0,1457,1803,1465,1386,6,-6,21.6700001,0,0.0199999996,0.540000021,0,0,1,-0,-0
2.775261,1783678206.814353,47,-2.75360155,-2.92669845,-2.83373451,0,0.0482621901,0.00582309347,0.994371891,-0.0118331509,0.00693386048,0.00637989771,431.417023,991.873047,0,0.290000021,0.335523218,2.77864289,0.323651761,2.79041743,0.0118714571,-0.0117745399,0.995980263,1.00899994,-1.60000002,-1.60000002,-3,-0.200000003,0,0,3.0999999,3,2.5,0,0,0,0,3.39411199e-05,0,0,-0.0430538096,-0.136512905,-0.258322865,-0.818422794,-0.258322865,0,-0,-0.819077432,0.00065461616,0,1457,1803,1465,1386,6,-6,21.6700001,0,0.0199999996,0.540000021,0,0,1,-0,0.000424264028
2.837017,1783678206.876109,48,-2.75486207,-2.92667484,-2.8341713,0,0.0494787283,0.00564070046,0.994899333,-0.00330995396,0.01679934,-0.0018405281,431.46701,991.873047,0,0.877000034,0.324841797,2.84706521,0.32242918,2.79016495,0.00241261721,0.0569002628,0.995976269,1.00999999,-1.60000002,-1.60000002,-3,-0.200000003,0,0,3.0999999,3,2.5,-5.96433892e-05,0.000104332124,1.73950211e-05,3.38815953e-05,3.40452425e-05,0,0,-0.0430538096,-0.136512905,-0.258322865,-0.818422794,-0.258322865,0,-0,-0.819077432,0.00065461616,0,1457,1803,1465,1386,6,-6,21.6700001,0,0.0199999996,0.540000021,0,0,1,0.000424264028,0.000424264028
2.899514,1783678206.938606,49,-2.7544663,-2.92812061,-2.8338604,0,0.0482033156,0.00628702296,0.995351136,0.0500275008,-0.0489984229,-0.0119477259,431.517029,991.873047,0,0.474000037,0.361897528,2.77252483,0.322677284,2.78901434,0.0392202437,-0.0164895058,0.995984197,1.00800002,-1.60000002,-1.60000002,-3,-0.200000003,0,0,3.0999999,3,2.5,0,0,0,-1.697056e-05,-1.697056e-05,0,0,-0.0430538096,-0.136512905,-0.258322865,-0.818422794,-0.258322865,0,-0,-0.819077432,0.00065461616,0,1457,1803,1465,1386,6,-6,21.6700001,0,0.0199999996,0.540000021,0,0,1,-0.000212132014,-0.000212132014
2.961273,1783678207.000365,50,-2.75374436,-2.93696761,-2.83415413,0,0.048751004,0.00551291369,0.994820595,0.00612648483,-0.0190146547,0.003483098,431.567017,991.873047,0,0.0790000036,0.317507952,2.80548191,0.3235811,2.77999878,-0.00607314706,0.0254831314,0.995980263,1.00899994,-1.60000002,-1.60000002,-3,-0.200000003,0,0,3.0999999,3,2.5,0,0,0,-1.697056e-05,1.697056e-05,0,0,-0.0430538096,-0.136512905,-0.258322865,-0.818422794,-0.258322865,0,-0,-0.819077432,0.00065461616,0,1457,1803,1465,1386,6,-6,21.6700001,0,0.0199999996,0.540000021,0,0,1,-0.000212132014,0.000212132014
3.024690,1783678207.063782,51,-2.7517271,-2.93529177,-2.8338356,0,0.0478828438,0.00604193471,0.99431318,0.0413446054,-0.0912102908,-0.0162233114,431.617035,991.873047,0,0.658000052,0.348152965,2.7569952,0.325482845,2.7818768,0.02267012,-0.0248816013,0.995980263,1.00899994,-1.60000002,-1.60000002,-3,-0.200000003,0,0,3.0999999,3,2.5,0,0,0,-3.39411199e-05,3.39411199e-05,0,0,-0.0430538096,-0.136512905,-0.258322865,-0.818422794,-0.258322865,0,-0,-0.819077432,0.00065461616,0,1457,1803,1465,1386,6,-6,21.6700001,0,0.0199999996,0.540000021,0,0,1,-0.000424264028,0.000424264028
3.056296,1783678207.095388,52,-2.75288296,-2.94597316,-2.83398819,0,0.048341278,0.00584076764,0.994715214,0.0269763637,0.0723246187,0.00518091395,431.667023,991.805603,0,0.243000016,0.336425424,2.78222966,0.32437098,2.77105165,0.0120544434,0.0111780167,0.996087432,0.982000053,-1.60000002,-1.60000002,-3,-0.200000003,0,0,3.0999999,3,2.5,0,0,0,0,0,0,0,-0.0430538096,-0.136512905,-0.258322865,-0.818422794,-0.258322865,0,-0,-0.819077432,0.00065461616,0,1457,1803,1465,1386,6,-6,21.6700001,0,0.0199999996,0.540000021,0,0,1,-0,-0
3.117582,1783678207.156674,53,-2.75228119,-2.93670177,-2.83433342,0,0.0487658121,0.00624339562,0.99496609,-0.000987773761,-0.00786696468,-0.0380395427,431.71701,991.805603,0,0.865000069,0.359525353,2.80591083,0.324880719,2.7802639,0.0346446335,0.025646925,0.995984197,1.00800002,-1.60000002,-1.60000002,-3,-0.200000003,0,0,3.0999999,3,2.5,1.58339753e-05,-0.000100231693,-2.69508364e-05,-1.69545838e-05,1.6869426e-05,0,0,-0.0430538096,-0.136512905,-0.258322865,-0.818422794,-0.258322865,0,-0,-0.819077432,0.00065461616,0,1457,1803,1465,1386,6,-6,21.6700001,0,0.0199999996,0.540000021,0,0,1,-0.000212132014,0.000212132014
3.180600,1783678207.219692,54,-2.76000452,-2.88306904,-2.81767654,0,0.0571899898,-0.00425162725,0.987838149,0.021802105,0.771430194,2.65722513,431.767029,991.805603,0,0.428000033,-0.246597871,3.31335759,0.3195723,2.83206511,-0.566170156,0.481292486,0.995980263,1.00899994,-1.60000002,-1.60000002,-3,-0.200000003,0,0,3.0999999,3,2.5,0,0,0,1.697056e-05,1.697056e-05,0,0,-0.0430538096,-0.136512905,-0.258322865,-0.818422794,-0.258322865,0,-0,-0.819077432,0.00065461616,0,1457,1803,1465,1386,6,-6,21.6700001,0,0.0199999996,0.540000021,0,0,1,0.000212132014,0.000212132014
3.242016,1783678207.281108,55,-2.75611663,-2.91252398,-2.84104919,0,0.0661533028,0.0128446901,0.99076879,0.0138029829,-1.32392597,-1.25798798,431.817017,991.805603,0,0.075000003,0.74276191,3.81963015,0.319396853,2.80024052,0.423365057,1.01938963,0.995777845,1.06000006,-1.60000002,-1.60000002,-3,-0.200000003,0,0,3.0999999,3,2.5,0,0,0,1.697056e-05,1.697056e-05,0,0,-0.0430538096,-0.136512905,-0.258322865,-0.818422794,-0.258322865,0,-0,-0.819077432,0.00065461616,0,1457,1803,1465,1386,6,-6,21.6700001,0,0.0199999996,0.540000021,0,0,1,0.000212132014,0.000212132014
3.304062,1783678207.343154,56,-2.74813747,-2.93386626,-2.84363747,0,0.0960278511,0.0155414492,0.993352592,0.399098665,0.015562132,0.458256781,431.867035,991.805603,0,0.661000013,0.896345139,5.52098036,0.326872051,2.77214193,0.569473088,2.74883842,0.995976269,1.00999999,-1.60000002,-1.60000002,-3,-0.200000003,0,0,3.0999999,3,2.5,0,0,0,-1.697056e-05,-1.697056e-05,0,0,-0.0430538096,-0.136512905,-0.258322865,-0.818422794,-0.258322865,0,-0,-0.819077432,0.00065461616,0,1457,1803,1465,1386,6,-6,21.6700001,0,0.0199999996,0.540000021,0,0,1,-0.000212132014,-0.000212132014
3.367104,1783678207.406196,57,-2.78599548,-2.97077847,-2.84446716,0,0.0737124756,-0.00519208098,0.997440875,0.693596542,-1.79503667,1.14592612,431.917023,991.924622,0,0.227000013,-0.298244894,4.22650909,0.293682486,2.74032211,-0.591927409,1.48618698,0.995984197,1.00800002,-1.60000002,-1.60000002,-3,-0.200000003,0,0,3.0999999,3,2.5,0,0,0,-5.09116871e-05,-5.09116871e-05,0,0,-0.0430538096,-0.136512905,-0.258322865,-0.818422794,-0.258322865,0,-0,-0.819077432,0.00065461616,0,1457,1803,1465,1386,6,-6,21.6700001,0,0.0199999996,0.540000021,0,0,1,-0.000636396115,-0.000636396115
3.429851,1783678207.468943,58,-2.88625884,-2.98428226,-2.81264496,0,-0.0931870863,0.00890387036,0.998181581,-1.21510947,-5.43618631,9.62052631,431.96701,991.924622,0,0.837000012,0.511070013,-5.3332839,0.189750582,2.76534081,0.321319431,-8.09862518,0.995980263,1.00899994,-1.60000002,-1.60000002,-3,-0.200000003,0,0,3.0999999,3,2.5,0,0,0,3.39411199e-05,0,0,0,-0.0430538096,-0.136512905,-0.258322865,-0.818422794,-0.258322865,0,-0,-0.819077432,0.00065461616,0,1457,1803,1465,1386,6,-6,21.6700001,0,0.0199999996,0.540000021,0,0,1,0.000424264028,-0
3.460673,1783678207.499765,59,-2.81734872,-3.12282515,-2.85968399,0,0.00656466745,-0.0154349497,0.966480374,-1.09897089,3.18728757,-6.35664892,432.017029,991.924622,0,0.453000009,-0.914951146,0.389117062,0.264689416,2.60313463,-1.17964053,-2.21401763,0.995984197,1.00800002,-1.60000002,-1.60000002,-3,-0.200000003,0,0,3.0999999,3,2.5,0,0,0,-1.697056e-05,5.09116835e-05,0,0,-0.0430538096,-0.136512905,-0.258322865,-0.818422794,-0.258322865,0,-0,-0.819077432,0.00065461616,0,1457,1803,1465,1386,6,-6,21.6700001,0,0.0199999996,0.540000021,0,0,1,-0.000212132014,0.000636396057
3.523309,1783678207.562400,60,-2.75268841,-2.9255197,-2.83309937,0,0.0478039458,0.0119483881,0.993659198,-2.72487283,-1.80801201,0.82164216,432.067017,991.924622,0,0.0940000042,0.688927591,2.75412011,0.323105961,2.7917037,0.36582163,-0.0375835896,0.995881081,1.03399992,-1.60000002,-1.60000002,-3,-0.200000003,0,0,3.0999999,3,2.5,-0.00471388781,0.00890790951,0.000809955643,9.69492175e-05,7.70930346e-05,0,0,-0.0430538096,-0.136512905,-0.258322865,-0.818422794,-0.258322865,0,-0,-0.819077432,0.00065461616,0,1457,1803,1465,1386,6,-6,21.6700001,0,0.0199999996,0.540000021,0,0,1,0.00127279223,0.000848528231
3.585533,1783678207.624625,61,-2.63466835,-3.09227633,-2.81204605,0,0.0347876288,0.0221217778,0.998696148,1.10294354,-1.32878923,-1.64917207,432.117035,991.924622,0,0.65200001,1.26893175,1.99449122,0.439301133,2.62733364,0.829630613,-0.632842422,0.995984197,1.00800002,-1.60000002,-1.60000002,-3,-0.200000003,0,0,3.0999999,3,2.5,0,0,0,3.39411199e-05,0.000101823367,0,0,-0.0430538096,-0.136512905,-0.258322865,-0.818422794,-0.258322865,0,-0,-0.819077432,0.00065461616,0,1457,1803,1465,1386,6,-6,21.6700001,0,0.0199999996,0.540000021,0,0,1,0.000424264028,0.00127279211
3.646442,1783678207.685534,62,-2.69041204,-3.12897468,-2.84482956,0,0.0667241365,0.0186113007,0.997739613,3.37950683,-1.15570104,1.17595935,432.167023,991.972229,0,0.244000018,1.06864095,3.82531238,0.384140164,2.58310556,0.684500813,1.24220681,0.995984197,1.00800002,-1.60000002,-1.60000002,-3,-0.200000003,0,0,3.0999999,3,2.5,0,0,0,1.69705545e-05,0.000118793934,0,0,-0.0430538096,-0.136512905,-0.258322865,-0.818422794,-0.258322865,0,-0,-0.819077432,0.00065461616,0,1457,1803,1465,1386,6,-6,21.6700001,0,0.0199999996,0.540000021,0,0,1,0.000212131941,0.00148492423
3.706525,1783678207.745617,63,-2.88533998,-3.20558977,-2.82212448,0,0.0379476398,0.00400552992,0.991087019,-2.12288213,1.16048837,1.80044937,432.21701,991.972229,0,0.779000044,0.231562629,2.19270372,0.191794813,2.51281667,0.0397678167,-0.320112944,0.995821476,1.04899991,-1.60000002,-1.60000002,-3,-0.200000003,0,0,3.0999999,3,2.5,0.121224478,-0.0431951359,0.115490168,0.0035944588,0.00274312613,0,0,-0.00346729439,-0.00278843776,-0.0208037663,-0.0167294964,-0.0208037663,0,-0,-0.016730627,1.1310899e-06,0,1425,1896,1460,1392,6,-6,21.6700001,0,0.0199999996,0.540000021,0,0,1,0.00275771646,-0.00148492435
3.768633,1783678207.807724,64,-2.80495787,-3.17315435,-2.79439545,0,0.0471059009,-0.0112709953,0.990344465,-0.372925967,2.17554331,0.674570918,432.267029,991.972229,0,0.882000029,-0.652048469,2.72305489,0.276081413,2.54318976,-0.928129911,0.179865122,0.995972216,1.01100004,-1.60000002,-1.60000002,-3,-0.200000003,0,0,3.0999999,3,2.5,0.0875092745,-0.0831402987,0.124926753,0.00915449206,-0.0053235963,0,0,-0.00915449206,0.0053235963,-0.0549269542,0.0319411568,-0.0549269542,0,-0,0.0319415778,-4.20423817e-07,0,1414,1883,1459,1393,6,-6,21.6700001,0,0.0199999996,0.540000021,0,0,1,0.00212132023,-0.000848527998
3.831974,1783678207.871065,65,-2.69131279,-3.04965925,-2.7964325,0,0.0706341863,0.0265427753,0.976160645,-0.974936068,0.0612817667,-1.71923208,432.317017,991.972229,0,0.112000003,1.5575453,4.13713932,0.381972194,2.66237116,1.17557311,1.47476816,0.9965837,0.856999993,-1.60000002,-1.60000002,-3,-0.200000003,0,0,3.0999999,3,2.5,0.141582087,-0.217580378,0.157555044,0.0109191472,-0.00691014901,0,0,-0.0106535181,0.00648255087,-0.0639211088,0.0388891511,-0.0639211088,0,-0,0.0388953052,-6.15401859e-06,0,1438,1887,1461,1391,6,-6,21.6700001,0,0.0199999996,0.540000021,0,0,1,0.00339411269,-0.00127279223
3.895981,1783678207.935072,66,-2.70509839,-2.96329284,-2.82485008,0,0.0744157806,-0.0269610062,0.99620384,1.91628838,1.12555671,0.403527826,432.367035,991.972229,0,0.580000043,-1.55025995,4.27046537,0.380338669,2.74735713,-1.93059862,1.52310824,0.995785773,1.05799997,-1.60000002,-1.60000002,-3,-0.200000003,0,0,3.0999999,3,2.5,0.178952545,-0.00955912843,0.105909541,0.0158570595,-0.014999236,0,0,-0.0156677272,0.0149891227,-0.0940063596,0.089917466,-0.0940063596,0,-0,0.0899347365,-1.726972e-05,0,1428,1865,1461,1391,6,-6,21.6700001,0,0.0199999996,0.540000021,0,0,1,0.00403050845,-0.000636396348
3.927214,1783678207.966306,67,-2.71162534,-2.93939209,-2.82504082,0,0.0250337161,0.0324536785,0.993767321,-1.51540613,0.791347861,-0.0745692849,432.417023,991.900818,0,0.213000014,1.87045634,1.44224834,0.359596342,2.78307176,1.51085997,-1.34082341,0.995976269,1.00999999,-1.60000002,-1.60000002,-3,-0.200000003,0,0,3.0999999,3,2.5,0.1190954,-0.130239815,0.144179091,0.0174108241,-0.0115781017,0,0,-0.0172905382,0.0114465598,-0.103743225,0.0686489865,-0.103743225,0,-0,0.0686793625,-3.03724519e-05,0,1423,1893,1460,1392,6,-6,21.6700001,0,0.0199999996,0.540000021,0,0,1,0.00275771646,-0.000212131883
4.021854,1783678208.060946,68,-2.69788027,-2.98134851,-2.86612129,0,0.132650882,-0.0548828728,1.00942647,2.24976587,-1.43865263,-3.31961441,432.46701,991.900818,0,0.641000032,-3.11212754,7.47554588,0.396920502,2.71196389,-3.50904799,4.76358223,0.995012939,1.25300002,-1.60000002,-1.60000002,-3,-0.200000003,0,0,3.0999999,3,2.5,0.120252535,-0.0535060689,0.0815837756,0.0187177733,-0.0163856111,0,0,-0.0185536593,0.0162425861,-0.111321956,0.0974115953,-0.111321956,0,0,0.0974555165,-4.3923359e-05,0,1453,1864,1463,1388,6,-6,21.6700001,0,0.0199999996,0.540000021,0,0,1,0.00212132023,0.000424264173
4.052463,1783678208.091555,69,-2.76212335,-3.03019118,-2.87491608,0,-0.0603148714,-0.0840694457,1.0233568,0.0801756382,-2.28153491,-0.69735384,432.517029,991.900818,0,0.386000007,-4.69634056,-3.36171317,0.335424244,2.71131372,-5.03176498,-6.07302666,0.995976269,1.00999999,-1.60000002,-1.60000002,-3,-0.200000003,0,0,3.0999999,3,2.5,-0.0789930448,0.0770078599,0.0713277385,0.0187642705,-0.0145156886,0,0,-0.0188440531,0.0145934662,-0.113064319,0.0875013024,-0.113064319,0,-0,0.0875607952,-5.94908961e-05,-0,1450,1884,1460,1392,6,-6,21.6700001,0,0.0199999996,0.540000021,0,0,1,0.0108187338,-0.00190918893
4.098530,1783678208.137622,70,-2.88868475,-3.19572711,-2.86633873,0,-0.039026022,-0.0259589609,0.98667264,-0.00645107776,-10.359313,-6.55889082,432.567017,991.900818,0,0.088000007,-1.50708127,-2.26426578,0.193276152,2.53449273,-1.70035744,-4.79875851,0.997259498,0.686999977,-1.60000002,-1.60000002,-3,-0.200000003,0,0,3.0999999,3,2.5,-0.476807743,0.140086412,0.18325986,0.0172426067,-0.00826799776,0,0,-0.018178083,0.00853933953,-0.109068498,0.0511651374,-0.109068498,0,0,0.0512360372,-7.09009837e-05,-0,1487,1883,1463,1388,6,-6,21.6700001,0,0.0199999996,0.540000021,0,0,1,0.0125157889,0.00487903692
4.192905,1783678208.231997,71,-2.83842683,-2.98486948,-2.86603165,0,0.278902978,0.082725361,1.01088464,0.633176923,0.126611948,1.36691785,432.617035,991.900818,0,0.583000004,4.67835331,15.3752241,0.220956549,2.68117261,4.45739698,12.6940517,0.995980263,1.00899994,-1.60000002,-1.60000002,-3,-0.200000003,0,0,3.0999999,3,2.5,0.0997586921,-0.00268267095,0.105159082,0.0164118782,-0.00520833302,0,0,-0.0163112208,0.00520562613,-0.0978673249,0.031156633,-0.0978673249,0,0,0.0312337577,-7.71253108e-05,-0,1461,1869,1462,1389,6,-6,21.6700001,0,0.0199999996,0.540000021,0,0,1,0.000848528114,0.000424264115
4.224774,1783678208.263866,72,-2.77418852,-2.93992162,-2.83571243,0,0.0251924023,-0.032156609,0.985182524,-0.699133158,4.10307789,3.99456763,432.667023,991.91272,0,0.515000045,-1.86948514,1.46402943,0.311646372,2.782305,-2.1811316,-1.31827557,0.996087432,0.982000053,-1.60000002,-1.60000002,-3,-0.200000003,0,0,3.0999999,3,2.5,0.193293408,-0.0637066811,0.131669432,0.0172211267,-0.00726613495,0,0,-0.017031312,0.00720357522,-0.102187872,0.0431379974,-0.102187872,0,-0,0.0432214513,-8.34534512e-05,0,1404,1890,1458,1394,6,-6,21.6700001,0,0.0199999996,0.540000021,0,0,1,0.00318198046,0.00148492446
4.287761,1783678208.326853,73,-2.85355568,-3.13117409,-2.84132195,0,0.0900625661,-0.01847177,1.00135636,2.86832833,-9.84248924,-2.47151923,432.71701,991.91272,0,0.770000041,-1.05680108,5.13851738,0.229057029,2.57530618,-1.28585815,2.5632112,0.9958691,1.03699994,-1.60000002,-1.60000002,-3,-0.200000003,0,0,3.0999999,3,2.5,-0.163931802,0.104379214,0.123640768,0.0163419787,-0.00630459329,0,0,-0.0165119767,0.00641283439,-0.0990718603,0.0383869968,-0.0990718603,0,0,0.0384770073,-9.00089653e-05,-0,1515,1857,1463,1389,6,-6,21.6700001,0,0.0199999996,0.540000021,0,0,1,0.00318198046,0.00148492446
4.350319,1783678208.389411,74,-2.80221605,-3.01850986,-2.82772446,0,0.0192555189,-0.0138720162,0.98185277,-1.30589283,6.81152058,3.06525803,432.767029,991.91272,0,0.690000057,-0.809444308,1.12339509,0.279462069,2.70491624,-1.08890641,-1.58152115,0.995980263,1.00899994,-1.60000002,-1.60000002,-3,-0.200000003,0,0,3.0999999,3,2.5,0.212047413,-0.0585591793,0.131957367,0.015434985,-0.0063011609,0,0,-0.0152210295,0.00624207454,-0.0913261771,0.0373560712,-0.0913261771,0,-0,0.0374524482,-9.63758503e-05,0,1372,1892,1459,1394,6,-6,21.6700001,0,0.0199999996,0.540000021,0,0,1,0.00106066023,0.00106066023
4.381141,1783678208.420233,75,-2.86068344,-3.17205405,-2.84136772,0,0.197839588,0.0681235045,0.998730183,1.36001205,-4.21442938,0.59059,432.817017,991.91272,0,0.088000007,3.90210772,11.17941,0.204440922,2.51648664,3.69766688,8.66292381,0.996706903,0.825999975,-1.60000002,-1.60000002,-3,-0.200000003,0,0,3.0999999,3,2.5,-0.0459791273,0.0437239259,0.131058946,0.0117736543,-0.00417411467,0,0,-0.0119842859,0.00431442773,-0.0719057173,0.0257851817,-0.0719057173,0,0,0.0258865654,-0.000101384358,-0,1497,1859,1463,1389,6,-6,21.6700001,0,0.0199999996,0.540000021,0,0,1,0.00148492423,0.000636396231
4.442451,1783678208.481542,76,-2.84211063,-3.09788442,-2.82701111,0,-0.117503554,-0.05909466,0.977016389,0.879343629,1.3215127,2.24827957,432.867035,991.91272,0,0.59800005,-3.461308,-6.84550428,0.250198394,2.65761137,-3.71150637,-9.50311565,0.995956361,1.0150001,-1.60000002,-1.60000002,-3,-0.200000003,0,0,3.0999999,3,2.5,0.0328005478,0.0527976602,0.162753999,0.0121637974,-0.00498304423,0,0,-0.0121305045,0.00503663393,-0.0727830231,0.0301137604,-0.0727830231,0,-0,0.0302198045,-0.00010604359,0,1401,1876,1458,1394,6,-6,21.6700001,0,0.0199999996,0.540000021,0,0,1,0.00381837692,0.00254558446
4.505198,1783678208.544290,77,-2.7845099,-3.06069422,-2.83814621,0,0.108703025,0.0389238819,1.01522434,-1.37377274,5.47575665,1.84246266,432.917023,991.916687,0,0.486000031,2.19565511,6.10708857,0.285111278,2.64244747,1.9105438,3.46464109,0.995980263,1.00899994,-1.60000002,-1.60000002,-3,-0.200000003,0,0,3.0999999,3,2.5,0.221625462,-0.115468897,0.0985263214,0.0106080491,-0.00364216301,0,0,-0.0103844292,0.00352565479,-0.0623065755,0.0210438706,-0.0623065755,0,-0,0.0211539287,-0.000110058536,0,1411,1888,1459,1393,6,-6,21.6700001,0,0.0199999996,0.540000021,0,0,1,0.00381837622,0.00212132023
4.598230,1783678208.637322,78,-2.81803584,-3.19917631,-2.84925842,0,0.103053123,0.0906748623,0.984475017,0.0260797739,-5.0373497,-3.48673749,432.96701,991.916687,0,0.574000001,5.2623682,5.95085239,0.235169813,2.50135899,5.02719831,3.44949341,0.995207012,1.204,-1.60000002,-1.60000002,-3,-0.200000003,0,0,3.0999999,3,2.5,-0.140293404,-0.0255467705,0.151649058,0.00935023837,-0.00380718615,0,0,-0.00951915141,0.00377642782,-0.0571149066,0.022544682,-0.0571149066,0,0,0.0226585679,-0.000113885115,-0,1499,1869,1462,1389,6,-6,21.6700001,0,0.0199999996,0.540000021,0,0,1,0.00212132023,0.00169705611
4.629110,1783678208.668202,79,-2.86642599,-3.14630628,-2.86466789,0,0.0310966596,-0.0376695357,0.991581798,1.13629675,-3.55631065,-1.70755422,433.017029,991.916687,0,0.36500001,-2.17558265,1.79495084,0.220506668,2.57389355,-2.39608932,-0.778942704,0.995980263,1.00899994,-1.60000002,-1.60000002,-3,-0.200000003,0,0,3.0999999,3,2.5,-0.0684292316,0.0996846631,0.13000764,0.00797107443,-0.00241581397,0,0,-0.00804011989,0.00251639588,-0.0482407212,0.0149812996,-0.0482407212,0,0,0.0150983753,-0.000117075913,-0,1465,1870,1462,1390,6,-6,21.6700001,0,0.0199999996,0.540000021,0,0,1,0.00445477292,0.00275771669
4.691770,1783678208.730862,80,-2.8484633,-3.11662388,-2.86096382,0,0.060185302,0.0564936921,0.978524566,0.423698306,-3.67493272,0.292840719,433.067017,991.916687,0,0.41200003,3.30422068,3.51377392,0.220361948,2.59792757,3.08385873,0.915846348,0.99725157,0.68900001,-1.60000002,-1.60000002,-3,-0.200000003,0,0,3.0999999,3,2.5,-0.104562514,0.0238678232,0.120914742,0.00779221952,-0.00163649069,0,0,-0.00802550092,0.00173044996,-0.0481530055,0.0102634756,-0.0481530055,0,0,0.0103826998,-0.000119224307,-0,1449,1861,1462,1390,6,-6,21.6700001,0,0.0199999996,0.540000021,0,0,1,0.00190918811,0.00148492411
4.753227,1783678208.792319,81,-2.80279541,-3.06283045,-2.87656593,0,0.0948163792,-0.0221133716,0.991586506,0.37350741,-0.333176494,-3.6084826,433.117035,991.916687,0,0.579000056,-1.27754152,5.4607172,0.280769557,2.6429112,-1.5583111,2.81780601,0.995980263,1.00899994,-1.60000002,-1.60000002,-3,-0.200000003,0,0,3.0999999,3,2.5,0.0140148709,-0.0428969339,0.166166827,0.00643578917,-0.00185775396,0,0,-0.00642164797,0.00181447098,-0.0385298878,0.0107659921,-0.0385298878,0,0,0.0108868256,-0.000120833967,0,1453,1875,1464,1387,6,-6,21.6700001,0,0.0199999996,0.540000021,0,0,1,0.000424264028,0.000424264028
4.785220,1783678208.824312,82,-2.8017509,-2.99596953,-2.88862228,0,0.0858148113,0.0820361376,0.99958533,-1.16267395,-0.326472163,0.766119242,433.167023,991.91272,0,0.127000004,4.69175959,4.89047337,0.257726431,2.71234369,4.43403339,2.17812967,0.995980263,1.00899994,-1.60000002,-1.60000002,-3,-0.200000003,0,0,3.0999999,3,2.5,0.0508524701,-0.0781809166,0.134083569,0.0077670631,-0.00164278282,0,0,-0.00771575281,0.00156389829,-0.0462945178,0.0092604924,-0.0462945178,0,-0,0.00938338973,-0.000122897283,0,1448,1881,1460,1393,6,-6,21.6700001,0,0.0199999996,0.540000021,0,0,1,0.00106066011,0.000212132087
4.848246,1783678208.887338,83,-2.83975053,-2.94962859,-2.89316559,0,0.0133129843,-0.0542404614,0.986252487,0.801562428,4.9077692,3.3293829,433.21701,991.91272,0,0.749000013,-3.14789772,0.772196531,0.251159936,2.77546096,-3.39905763,-2.00326443,0.995996118,1.005,-1.60000002,-1.60000002,-3,-0.200000003,0,0,3.0999999,3,2.5,0.0612925068,0.0480856299,0.0936028734,0.00729955733,-0.00149989943,0,0,-0.00723795826,0.00154822553,-0.0434277505,0.00916488469,-0.0434277505,0,-0,0.00928935315,-0.000124468424,0,1391,1874,1460,1393,6,-6,21.6700001,0,0.0199999996,0.540000021,0,0,1,0.00509116892,-0.000848527765
4.912326,1783678208.951418,84,-2.83468413,-2.90133119,-2.91412354,0,0.0931951553,0.0287733022,0.978467822,-0.0543613285,3.9988246,-2.59646726,433.267029,991.91272,0,0.405000031,1.68438232,5.43844461,0.236786261,2.80513096,1.44759607,2.63331366,0.995972216,1.01100004,-1.60000002,-1.60000002,-3,-0.200000003,0,0,3.0999999,3,2.5,0.093845278,-0.0216569789,0.146598548,0.00768563012,-0.000161899443,0,0,-0.00759075256,0.000140004238,-0.0455445163,0.000714944734,-0.0455445163,0,-0,0.00084002543,-0.000125080696,-0,1433,1875,1465,1386,6,-6,21.6700001,0,0.0199999996,0.540000021,0,0,1,0.00190918811,0.00106066011
4.974062,1783678209.013154,85,-2.856179,-2.92393303,-2.91716766,0,0.0964413583,0.0619875416,0.978752553,0.0881438851,-4.12514162,-4.45918655,433.317017,991.91272,0,0.407000005,3.62388587,5.616292,0.20908989,2.78315306,3.41479588,2.83313894,0.996476471,0.884000003,-1.60000002,-1.60000002,-3,-0.200000003,0,0,3.0999999,3,2.5,-0.0306901559,0.0243312754,0.0939918458,0.00810601935,-0.000450710475,0,0,-0.00820470043,0.000541886431,-0.0492282026,0.00312567572,-0.0492282026,0,0,0.00325131859,-0.000125642939,-0,1478,1863,1463,1389,6,-6,21.6700001,0,0.0199999996,0.540000021,0,0,1,0.00106066011,0.000212132087
5.036030,1783678209.075122,86,-2.89241576,-2.90970731,-2.90970612,0,0.0611718744,0.0549531691,0.938831449,-1.4195807,-7.46909332,-3.74405026,433.367035,991.91272,0,0.556000054,3.34990501,3.72162533,0.172111288,2.80367136,3.17779374,0.917953968,0.995980263,1.00899994,-1.60000002,-1.60000002,-3,-0.200000003,0,0,3.0999999,3,2.5,-0.0570824482,0.0289704483,0.201000959,0.00823287386,0.00171709503,0,0,-0.00829046965,-0.00168786384,-0.0497428179,-0.0102523742,-0.0497428179,0,0,-0.010127183,-0.000125191102,-0,1501,1883,1461,1391,6,-6,21.6700001,0,0.0199999996,0.540000021,0,0,1,0.00721248938,0.00212132046
5.098030,1783678209.137121,87,-2.84891129,-2.85767508,-2.92406845,0,0.0408326425,0.0795857385,0.990896761,-0.607119381,-0.706234932,-4.16975451,433.417023,991.91272,0,0.102000006,4.59196138,2.35213017,0.210778534,2.8614409,4.38118267,-0.509310722,0.995980263,1.00899994,-1.60000002,-1.60000002,-3,-0.200000003,0,0,3.0999999,3,2.5,-0.0316049829,-0.0431631282,0.148857147,0.00910185929,0.000659273763,0,0,-0.00913374871,-0.000702825375,-0.0548024923,-0.00434075342,-0.0548024923,0,0,-0.00421695225,-0.000123801277,-0,1452,1875,1465,1386,6,-6,21.6700001,0,0.0199999996,0.540000021,0,0,1,0.00127279211,0.000424264028
5.165843,1783678209.204935,88,-2.8481946,-2.87046647,-2.9244957,0,0.0782244802,0.0790623501,0.986678898,-1.802531,-2.75911355,-1.71081102,433.46701,991.91272,0,0.592000008,4.58130884,4.51853848,0.208912492,2.83884454,4.37239647,1.67969394,0.995381474,1.15999997,-1.60000002,-1.60000002,-3,-0.200000003,0,0,3.0999999,3,2.5,-0.0375639461,-0.035157524,0.126214281,0.00763190491,0.000942965038,0,0,-0.00767547917,-0.00098374777,-0.0460528731,-0.00602566916,-0.0460528731,0,0,-0.00590248685,-0.000123182544,-0,1470,1890,1463,1389,6,-6,21.6700001,0,0.0199999996,0.540000021,0,0,1,0.00403050845,0.00106066035
5.205842,1783678209.244934,89,-2.95551705,-2.7882092,-2.90924263,0,0.0525212809,-0.0240919497,1.03608489,0.792360663,-0.420828521,2.87514281,433.517029,991.91272,0,0.340000004,-1.33205152,2.90117455,0.127640024,2.92897105,-1.45969152,-0.0277965069,0.99598819,1.00699997,-1.60000002,-1.60000002,-3,-0.200000003,0,0,3.0999999,3,2.5,0.0678115711,0.0939320475,0.0930429026,0.00844105426,0.00386901107,0,0,-0.00837276783,-0.00377442152,-0.0502366051,-0.0227673929,-0.0502366051,0,-0,-0.0226465296,-0.000120862656,-0,1436,1871,1461,1391,6,-6,21.6700001,0,0.0199999996,0.540000021,0,0,1,0.00403050892,0.00233345269
5.268340,1783678209.307431,90,-2.86844444,-2.77777624,-2.88785934,0,-0.00411529373,0.0807269365,0.988976002,-0.600826919,-1.40270376,3.17011714,433.567017,991.91272,0,0.0700000003,4.66652441,-0.237625599,0.196660459,2.94798422,4.46986389,-3.18560982,0.997271478,0.683999956,-1.60000002,-1.60000002,-3,-0.200000003,0,0,3.0999999,3,2.5,-0.0322867781,-0.0809029192,0.180564493,0.0103759728,0.00340240821,0,0,-0.0103979371,-0.00350742368,-0.0623876229,-0.0211611707,-0.0623876229,0,-0,-0.0210445412,-0.000116628791,0,1420,1869,1461,1391,6,-6,21.6700001,0,0.0199999996,0.540000021,0,0,1,0.000636396057,-0.000212132014
5.331213,1783678209.370305,91,-2.88560557,-2.78250313,-2.90240669,0,0.0236365125,-0.0596295223,1.01091206,0.0941266418,3.35260582,-0.274359882,433.617035,991.91272,0,0.839000046,-3.3757298,1.33708668,0.206093475,2.94101286,-3.58182335,-1.60392618,0.995980263,1.00899994,-1.60000002,-1.60000002,-3,-0.200000003,0,0,3.0999999,3,2.5,-0.00632444955,0.0707373619,0.14554593,0.00706489524,0.00104512332,0,0,-0.00707127666,-0.000973749324,-0.042427659,-0.00595763698,-0.042427659,0,-0,-0.00584249571,-0.000115141476,-0,1414,1882,1461,1391,6,-6,21.6700001,0,0.0199999996,0.540000021,0,0,1,0.00487903692,0.00148492458
5.362435,1783678209.401527,92,-2.89576054,-2.79386568,-2.88625145,0,0.00807694718,0.017662894,0.998439193,-1.58297384,0.673331738,3.89436674,433.667023,991.91272,0,0.123000003,1.01348555,0.463415802,0.178272754,2.9328649,0.835212827,-2.46944904,0.996087432,0.982000053,-1.60000002,-1.60000002,-3,-0.200000003,0,0,3.0999999,3,2.5,0.00210502371,-0.0148592573,0.206185997,0.00742854457,0.00385938934,0,0,-0.0074264775,-0.00387398107,-0.0445588641,-0.0233562104,-0.0445588641,0,-0,-0.0232438855,-0.000112325593,-0,1428,1887,1460,1392,6,-6,21.6700001,0,0.0199999996,0.540000021,0,0,1,0.00424264045,-0.000848528347
5.425544,1783678209.464635,93,-2.87222528,-2.7491138,-2.88723373,0,0.113699816,0.00474319234,0.967752159,1.07076168,3.46689129,-0.883914232,433.71701,991.91272,0,0.209000006,0.280818522,6.70079994,0.204770386,2.95290399,0.0760481358,3.74789596,0.995984197,1.00800002,-1.60000002,-1.60000002,-3,-0.200000003,0,0,3.0999999,3,2.5,0.0340212137,-0.00922140665,0.151470736,0.00680641644,0.00164259388,0,0,-0.00677536754,-0.00166089716,-0.0406522043,-0.0100748744,-0.0406522043,0,0,-0.00996538252,-0.00010949179,0,1465,1876,1463,1389,6,-6,21.6700001,0,0.0199999996,0.540000021,0,0,1,0.00275771623,0.00106066
5.486214,1783678209.525306,94,-2.87028027,-2.82915068,-2.90264702,0,0.0734231398,-0.0286264513,1.03685296,1.15763211,-0.349969745,-0.360616803,433.767029,991.91272,0,0.301000029,-1.58147633,4.04901314,0.214238986,2.88323188,-1.79571533,1.16578126,0.995980263,1.00899994,-1.60000002,-1.60000002,-3,-0.200000003,0,0,3.0999999,3,2.5,-0.0966868401,0.0325907916,0.123078495,0.00491717085,0.000818155124,0,0,-0.0157413222,0.0605306551,-0.0944479331,0.362944514,-0.0944479331,0,0,0.363183916,-0.000239403147,0,1463,1889,1452,1402,6,-6,21.6700001,0,0.0199999996,0.540000021,0,0,1,0.0430628024,-0.0125157936
5.577701,1783678209.616793,95,-4.02205706,-2.30150652,-2.22982025,0,0.101264596,-0.0220268685,1.01909935,2.04238224,-2.67389655,-2.14275503,434.617035,991.91272,0,0.422000021,-1.23820138,5.67335129,-0.943571746,3.40644979,-0.294629633,2.26690149,0.995980263,1.00899994,-1.60000002,-1.60000002,-3,-0.200000003,0,0,3.0999999,3,2.5,-0.097359091,-0.0108236549,-0.0446819589,0.0130404076,-0.0597908646,0,0,-0.0131386425,0.059779942,-0.0788318515,0.358379006,-0.0788318515,0,0,0.358679652,-0.000300636806,0,1491,1871,1452,1401,6,-6,21.6700001,0,0.0199999996,0.540000021,0,0,1,0.0220617317,0.000424263068
5.608825,1783678209.647917,96,-4.18149567,-2.44384789,-2.29929352,0,0.0466673337,-0.0328353196,1.04814661,6.87750149,-5.58379698,0.240698874,434.667023,991.900818,0,0.0690000057,-1.79431975,2.5480864,-1.1024195,3.27508593,-0.691900253,-0.726999521,0.997434556,0.643000007,-1.60000002,-1.60000002,-3,-0.200000003,0,0,3.0999999,3,2.5,-0.0885629058,0.148904637,-0.0413999259,0.0134707885,-0.0473512411,0,0,-0.0136534749,0.0476377681,-0.0819208473,0.285470247,-0.0819208473,0,0,0.285826623,-0.000356382283,-0,1367,1828,1455,1398,6,-6,21.6700001,0,0.0199999996,0.540000021,0,0,1,0.0140007129,-0.00721248891
5.670837,1783678209.709929,97,-4.69675112,-2.55639386,-2.41927528,0,-0.0894744918,-0.0529559627,1.04074728,12.6136856,5.14263916,2.25359988,434.71701,991.900818,0,0.643000007,-2.91284823,-4.90739822,-1.61423004,3.1932373,-1.2986182,-8.10063553,0.995980263,1.00899994,-1.60000002,-1.60000002,-3,-0.200000003,0,0,3.0999999,3,2.5,-0.12104097,0.239394993,0.0445341133,0.0132804113,-0.0326944105,0,0,-0.0134025412,0.0329359584,-0.0804152489,0.197219625,-0.0804152489,0,0,0.197615743,-0.000396120478,-0,1367,1803,1452,1402,6,-6,21.6700001,0,0.0199999996,0.540000021,0,0,1,0.00700035598,-0.0235466547
5.733591,1783678209.772682,98,-5.20154762,-2.66050768,-2.58499146,0,-0.0331121273,-0.0707541406,0.9932217,14.2173185,5.62821293,3.47878265,434.767029,991.900818,0,0.223000005,-4.07469654,-1.90460253,-2.11638236,3.07656431,-1.95831418,-4.98116684,0.995984197,1.00800002,-1.60000002,-1.60000002,-3,-0.200000003,0,0,3.0999999,3,2.5,-0.137434483,0.0702702403,0.104863256,0.0117221512,-0.0263793338,0,0,-0.0118606854,0.0264501665,-0.0711641163,0.158276588,-0.0711641163,0,0,0.158701003,-0.000424411031,-0,1379,1803,1466,1384,6,-6,21.6700001,0,0.0199999996,0.540000021,0,0,1,0.000212134793,-0.0358503163
5.796621,1783678209.835712,99,-5.4967308,-2.56121016,-2.75262642,0,0.0688264817,0.0241970513,0.95482856,15.677002,7.02978706,-4.755229,434.817017,991.900818,0,0.316000015,1.45166612,4.12157679,-2.43434119,3.15213847,3.88600731,0.969438314,0.996162772,0.963,-1.60000002,-1.60000002,-3,-0.200000003,0,0,3.0999999,3,2.5,0.161651865,-0.17540063,0.103980273,0.0120348604,-0.0295191202,0,0,-0.0117135802,0.0291748028,-0.0702814832,0.174597844,-0.0702814832,0,-0,0.175048813,-0.000450969441,0,1468,1803,1460,1393,6,-6,21.6700001,0,0.0199999996,0.540000021,0,0,1,-0.0108187329,-0.0460326523
5.875407,1783678209.914499,100,-5.6737113,-2.70272875,-2.80241394,0,0.140657529,0.00762547087,0.992418289,9.54742241,-7.72292423,-1.50004351,434.867035,991.900818,0,0.398000032,0.440236419,8.06668568,-2.60867834,2.99392867,3.04891467,5.07275677,0.995976269,1.00999999,-1.60000002,-1.60000002,-3,-0.200000003,0,0,3.0999999,3,2.5,-0.0172811225,-0.0225783624,-0.177496195,0.00747726997,-0.0350948311,0,0,-0.00749472389,0.0350720286,-0.0449683443,0.209948033,-0.0449683443,0,0,0.210432172,-0.000484135846,0,1485,1803,1463,1388,6,-6,21.6700001,0,0.0199999996,0.540000021,0,0,1,-0.00445477385,-0.0328804664
5.906313,1783678209.945405,101,-5.38711977,-2.47239137,-2.77840614,0,0.0900219679,0.0588691272,1.05375803,-0.117772758,-4.0392108,3.11334157,434.917023,991.944458,0,0.0700000003,3.19755578,4.87532616,-2.33012986,3.23866343,5.52768564,1.63666272,0.996325552,0.921999991,-1.60000002,-1.60000002,-3,-0.200000003,0,0,3.0999999,3,2.5,0.129057959,-0.0857059062,-0.241680369,0.0117328539,-0.0323353559,0,0,-0.0114877028,0.0322000422,-0.0689262152,0.192682609,-0.0689262152,0,-0,0.19320026,-0.000517651206,0,1367,1889,1455,1398,6,-6,21.6700001,0,0.0199999996,0.540000021,0,0,1,-0.0159099028,0.0167584307
