pc_elapsed_s,pc_unix_s,frame_index,roll_deg,pitch_deg,yaw_deg,altitude_m,accel_x_g,accel_y_g,accel_z_g,gyro_x_dps,gyro_y_dps,gyro_z_dps,fc_time_s,imu_irq_hz,imu_poll_hz,imu_age_ms,roll_acc_deg,pitch_acc_deg,roll_gyro_deg,pitch_gyro_deg,roll_residual_deg,pitch_residual_deg,attitude_cf_alpha,attitude_dt_ms,coax_roll_rate_kd,coax_pitch_rate_kd,coax_yaw_angle_kp,coax_yaw_rate_kd,coax_vel_x_kd,coax_vel_y_kd,coax_vel_z_kd,coax_accel_xy_limit_m_s2,coax_accel_z_limit_m_s2,nav_acc_x_m_s2,nav_acc_y_m_s2,nav_acc_z_m_s2,vel_est_x_m_s,vel_est_y_m_s,vel_ref_x_m_s,vel_ref_y_m_s,vel_err_x_m_s,vel_err_y_m_s,vel_pid_out_x_m_s2,vel_pid_out_y_m_s2,vel_pid_p_x_m_s2,vel_pid_i_x_m_s2,vel_pid_d_x_m_s2,vel_pid_p_y_m_s2,vel_pid_i_y_m_s2,vel_pid_d_y_m_s2,servo_alpha_us,servo_beta_us,motor_upper_us,motor_lower_us,vel_loop_x_kp,vel_loop_y_kp,vel_loop_output_limit_m_s2,vel_loop_x_ki,vel_loop_y_ki,vel_loop_i_limit_m_s2,vel_loop_x_kd,vel_loop_y_kd,vel_loop_enable,flow_raw_vx_m_s,flow_raw_vy_m_s
0.141770,1783679966.442255,1,-0.76637888,-0.228714228,24.6604252,0,0.0461665653,0.00281774625,0.994350791,-0.0433273315,0.00345127657,0.0727519542,144.235001,991.952393,0,0.34800002,0.162361756,2.65825748,0.193940416,2.7402699,-0.03157866,-0.0820124149,0.996023893,0.998000026,-1.60000002,-1.60000002,-3,-0.200000003,0,0,3.0999999,3,2.5,0,0,0,1.697056e-05,5.09116835e-05,0,0,0.0377729647,0.04425909,0.226637781,0.266158968,0.226637781,0,-0,0.265554547,0.000604435452,0,1467,1933,1405,1449,6,-6,21.6700001,0,0.0199999996,0.540000021,0,0,1,0.000212132014,0.000636396057
0.172101,1783679966.472585,2,-0.762386978,-0.239387512,24.6614666,0,0.0462248698,0.00359508209,0.994342804,-0.0258339532,-0.0617269203,0.0316638425,144.285004,991.952393,0,0.0700000003,0.207154036,2.66162467,0.197768778,2.72954535,0.00938525796,-0.0679206848,0.995956361,1.0150001,-1.60000002,-1.60000002,-3,-0.200000003,0,0,3.0999999,3,2.5,-7.39395637e-06,0.00010027059,3.67355351e-05,-3.39486251e-05,3.4042896e-05,0,0,0.0377729647,0.04425909,0.226637781,0.266158968,0.226637781,0,-0,0.265554547,0.000604435452,0,1467,1933,1405,1449,6,-6,21.6700001,0,0.0199999996,0.540000021,0,0,1,-0.000424264028,0.000424264028
0.234799,1783679966.535284,3,-0.76623702,-0.25358367,24.6622715,0,0.0468727201,0.00230884971,0.994549096,-0.0554959029,0.00691766245,-0.00396599248,144.335007,991.952393,0,0.546000004,0.133012146,2.69832444,0.194202125,2.71514201,-0.0611899793,-0.0168175697,0.99598819,1.00699997,-1.60000002,-1.60000002,-3,-0.200000003,0,0,3.0999999,3,2.5,0,0,0,0,6.78822398e-05,0,0,0.0377729647,0.04425909,0.226637781,0.266158968,0.226637781,0,-0,0.265554547,0.000604435452,0,1467,1933,1405,1449,6,-6,21.6700001,0,0.0199999996,0.540000021,0,0,1,-0,0.000848528056
0.309850,1783679966.610334,4,-0.761052608,-0.244851351,24.6625538,0,0.0483371913,0.00385070499,0.994920135,-0.0463391915,0.0184057094,0.0247377194,144.38501,991.952393,0,0.140000001,0.221754521,2.78144979,0.199049741,2.72357392,0.0227047801,0.0578758717,0.995976269,1.00999999,-1.60000002,-1.60000002,-3,-0.200000003,0,0,3.0999999,3,2.5,0,0,0,-5.09116835e-05,8.4852807e-05,0,0,0.0377729647,0.04425909,0.226637781,0.266158968,0.226637781,0,-0,0.265554547,0.000604435452,0,1467,1933,1405,1449,6,-6,21.6700001,0,0.0199999996,0.540000021,0,0,1,-0.000636396057,0.00106066011
0.371532,1783679966.672017,5,-0.7628901,-0.239973068,24.6626606,0,0.0472140796,0.00256385375,0.994219244,-0.0341018513,-0.0715761855,0.0107809175,144.435013,991.908752,0,0.738000035,0.147751793,2.71884465,0.19750382,2.72872496,-0.0497520268,-0.00988030434,0.995976269,1.00999999,-1.60000002,-1.60000002,-3,-0.200000003,0,0,3.0999999,3,2.5,0,0,0,-3.39411199e-05,0,0,0,0.0377729647,0.04425909,0.226637781,0.266158968,0.226637781,0,-0,0.265554547,0.000604435452,0,1467,1933,1405,1449,6,-6,21.6700001,0,0.0199999996,0.540000021,0,0,1,-0.000424264028,-0
0.402752,1783679966.703237,6,-0.759021997,-0.24475646,24.6634598,0,0.047648862,0.00380097027,0.99459064,-0.0867885053,0.115882762,0.000381188467,144.485001,991.908752,0,0.325000018,0.218962938,2.74280977,0.201100037,2.72382545,0.0178629011,0.0189843178,0.99598819,1.00699997,-1.60000002,-1.60000002,-3,-0.200000003,0,0,3.0999999,3,2.5,0,0,0,-3.39411199e-05,3.39411199e-05,0,0,0.0377729647,0.04425909,0.226637781,0.266158968,0.226637781,0,-0,0.265554547,0.000604435452,0,1467,1933,1405,1449,6,-6,21.6700001,0,0.0199999996,0.540000021,0,0,1,-0.000424264028,0.000424264028
0.466384,1783679966.766869,7,-0.758291364,-0.243247271,24.6634293,0,0.047640495,0.00261307228,0.994524002,-0.00729716383,-0.0495938137,0.0623212233,144.535004,991.908752,0,0.0700000003,0.150542036,2.74252295,0.202097937,2.72534561,-0.0515559018,0.0171773434,0.996206403,0.951999962,-1.60000002,-1.60000002,-3,-0.200000003,0,0,3.0999999,3,2.5,7.97706889e-05,-6.2044528e-05,5.21278416e-05,7.5941692e-08,-5.90663873e-08,0,0,0.0377729647,0.04425909,0.226637781,0.266158968,0.226637781,0,-0,0.265554547,0.000604435452,0,1467,1933,1405,1449,6,-6,21.6700001,0,0.0199999996,0.540000021,0,0,1,-0,-0
0.559029,1783679966.859514,8,-0.758596063,-0.249507904,24.6638145,0,0.0459705144,0.00422284752,0.994491756,-0.0502296984,0.00951568782,-0.014603788,144.585007,991.908752,0,0.522000015,0.243289977,2.64659739,0.201429501,2.71944284,0.0418604761,-0.072845459,0.995984197,1.00800002,-1.60000002,-1.60000002,-3,-0.200000003,0,0,3.0999999,3,2.5,0,0,0,-3.39411199e-05,-3.39411199e-05,0,0,0.0377729647,0.04425909,0.226637781,0.266158968,0.226637781,0,-0,0.265554547,0.000604435452,0,1467,1933,1405,1449,6,-6,21.6700001,0,0.0199999996,0.540000021,0,0,1,-0.000424264028,-0.000424264028
0.590252,1783679966.890736,9,-0.759718239,-0.257038832,24.6636162,0,0.0460774973,0.00309484731,0.994324148,-0.00154887442,0.00896548852,-0.00858335756,144.63501,991.908752,0,0.111000009,0.178333327,2.65320516,0.200564802,2.71185517,-0.0222314745,-0.0586500168,0.995980263,1.00899994,-1.60000002,-1.60000002,-3,-0.200000003,0,0,3.0999999,3,2.5,0,0,0,-5.09116835e-05,1.697056e-05,0,0,0.0377729647,0.04425909,0.226637781,0.266158968,0.226637781,0,-0,0.265554547,0.000604435452,0,1467,1933,1405,1449,6,-6,21.6700001,0,0.0199999996,0.540000021,0,0,1,-0.000636396057,0.000212132014
0.654837,1783679966.955322,10,-0.757756591,-0.268452644,24.6651115,0,0.0465874486,0.00407241052,0.994264662,-0.0864035636,-0.153587431,0.0780636221,144.685013,991.908752,0,0.718000054,0.234676585,2.68267703,0.202307001,2.70027637,0.0323695838,-0.0175993443,0.995980263,1.00899994,-1.60000002,-1.60000002,-3,-0.200000003,0,0,3.0999999,3,2.5,0,0,0,0,0,0,0,0.0377729647,0.04425909,0.226637781,0.266158968,0.226637781,0,-0,0.265554547,0.000604435452,0,1467,1933,1405,1449,6,-6,21.6700001,0,0.0199999996,0.540000021,0,0,1,-0,-0
0.717434,1783679967.017919,11,-0.758782864,-0.278846979,24.6656647,0,0.0453542396,0.0023645279,0.993631482,-0.00513066817,0.0591573901,0.0177629516,144.735001,991.908752,0,0.310000002,0.136345536,2.61344051,0.201673925,2.69011998,-0.0653283894,-0.0766794682,0.995972216,1.01100004,-1.60000002,-1.60000002,-3,-0.200000003,0,0,3.0999999,3,2.5,0,0,0,-1.697056e-05,-1.697056e-05,0,0,0.0377729647,0.04425909,0.226637781,0.266158968,0.226637781,0,-0,0.265554547,0.000604435452,0,1467,1933,1405,1449,6,-6,21.6700001,0,0.0199999996,0.540000021,0,0,1,-0.000212132014,-0.000212132014
0.779615,1783679967.080100,12,-0.764759898,-0.280014992,24.6661701,0,0.045943588,0.00373922475,0.994309485,-0.115878098,-0.0547335185,0.00124300644,144.785004,991.908752,0,0.0710000023,0.215466917,2.64553857,0.195356265,2.68881011,0.0201106519,-0.0432715416,0.996142924,0.967999995,-1.60000002,-1.60000002,-3,-0.200000003,0,0,3.0999999,3,2.5,-8.55034596e-05,8.49343905e-06,9.1552738e-06,-3.40238876e-05,3.39493417e-05,0,0,0.0377729647,0.04425909,0.226637781,0.266158968,0.226637781,0,-0,0.265554547,0.000604435452,0,1467,1933,1405,1449,6,-6,21.6700001,0,0.0199999996,0.540000021,0,0,1,-0.000424264028,0.000424264028
0.825049,1783679967.125534,13,-0.76188004,-0.287192583,24.6662731,0,0.0460818931,0.00304585323,0.99427861,0.0686840191,0.0317984186,0.001100122,144.835007,991.908752,0,0.513999999,0.1755182,2.65357971,0.198403254,2.6815753,-0.0228850543,-0.0279955864,0.996083379,0.98300004,-1.60000002,-1.60000002,-3,-0.200000003,0,0,3.0999999,3,2.5,0,0,0,3.39411199e-05,0,0,0,0.0377729647,0.04425909,0.226637781,0.266158968,0.226637781,0,-0,0.265554547,0.000604435452,0,1467,1933,1405,1449,6,-6,21.6700001,0,0.0199999996,0.540000021,0,0,1,0.000424264028,-0
0.888666,1783679967.189151,14,-0.766935229,-0.284746647,24.6664715,0,0.046494551,0.00341844629,0.99422425,-0.107708901,-0.00333618373,0.0275066812,144.88501,991.908752,0,0.111000009,0.196999595,2.67745066,0.193243414,2.68393755,0.00375618041,-0.0064868927,0.99598819,1.00699997,-1.60000002,-1.60000002,-3,-0.200000003,0,0,3.0999999,3,2.5,0,0,0,1.697056e-05,-1.697056e-05,0,0,0.0377729647,0.04425909,0.226637781,0.266158968,0.226637781,0,-0,0.265554547,0.000604435452,0,1467,1933,1405,1449,6,-6,21.6700001,0,0.0199999996,0.540000021,0,0,1,0.000212132014,-0.000212132014
0.950238,1783679967.250723,15,-0.763878524,-0.294103861,24.6675072,0,0.0464552902,0.00309448666,0.994090736,0.0415219404,-0.041102346,0.0293122604,144.935013,991.988098,0,0.715000033,0.178354397,2.67555451,0.196387678,2.67455029,-0.018033281,0.00100421906,0.995980263,1.00899994,-1.60000002,-1.60000002,-3,-0.200000003,0,0,3.0999999,3,2.5,0,0,0,1.697056e-05,-1.697056e-05,0,0,0.0377729647,0.04425909,0.226637781,0.266158968,0.226637781,0,-0,0.265554547,0.000604435452,0,1467,1933,1405,1449,6,-6,21.6700001,0,0.0199999996,0.540000021,0,0,1,0.000212132014,-0.000212132014
0.990272,1783679967.290757,16,-0.766406059,-0.288238525,24.6681423,0,0.0479443148,0.00325550791,0.994355083,-0.130428925,0.0687964112,0.0354498439,144.985001,991.988098,0,0.30400002,0.187585101,2.76044869,0.193812624,2.68009734,-0.00622752309,0.0803513527,0.99598819,1.00699997,-1.60000002,-1.60000002,-3,-0.200000003,0,0,3.0999999,3,2.5,0,0,0,3.39411199e-05,3.39411199e-05,0,0,0.0377729647,0.04425909,0.226637781,0.266158968,0.226637781,0,-0,0.265554547,0.000604435452,0,1467,1933,1405,1449,6,-6,21.6700001,0,0.0199999996,0.540000021,0,0,1,0.000424264028,0.000424264028
1.051869,1783679967.352354,17,-0.764179409,-0.285484076,24.6684074,0,0.0470157079,0.00315529061,0.994143546,0.0714943558,-0.0619557947,0.0250122603,145.035004,991.988098,0,0.0960000008,0.181849211,2.70763969,0.196069688,2.68307829,-0.0142204762,0.0245614052,0.996103287,0.977999985,-1.60000002,-1.60000002,-3,-0.200000003,0,0,3.0999999,3,2.5,-1.25169763e-07,3.82489743e-05,4.10842913e-05,3.39409962e-05,3.74074958e-08,0,0,0.0377729647,0.04425909,0.226637781,0.266158968,0.226637781,0,-0,0.265554547,0.000604435452,0,1467,1933,1405,1449,6,-6,21.6700001,0,0.0199999996,0.540000021,0,0,1,0.000424264028,-0
1.113210,1783679967.413695,18,-0.767416716,-0.291739941,24.6693726,0,0.0456879213,0.00274835876,0.994106352,-0.139499962,0.0554080717,0.0275054444,145.085007,991.988098,0,0.502000034,0.158402532,2.6313827,0.192915723,2.67710209,-0.0345131904,-0.0457193851,0.995980263,1.00899994,-1.60000002,-1.60000002,-3,-0.200000003,0,0,3.0999999,3,2.5,0,0,0,1.697056e-05,-1.697056e-05,0,0,0.0377729647,0.04425909,0.226637781,0.266158968,0.226637781,0,-0,0.265554547,0.000604435452,0,1467,1933,1405,1449,6,-6,21.6700001,0,0.0199999996,0.540000021,0,0,1,0.000212132014,-0.000212132014
1.176316,1783679967.476800,19,-0.762201667,-0.28480792,24.6698532,0,0.047321599,0.00317731965,0.994517446,0.0299775116,-0.0652254224,0.0148258768,145.13501,991.988098,0,0.0950000063,0.183049962,2.72420645,0.198050693,2.68369174,-0.0150007308,0.0405147076,0.996087432,0.982000053,-1.60000002,-1.60000002,-3,-0.200000003,0,0,3.0999999,3,2.5,0,0,0,0,0,0,0,0.0377729647,0.04425909,0.226637781,0.266158968,0.226637781,0,-0,0.265554547,0.000604435452,0,1467,1933,1405,1449,6,-6,21.6700001,0,0.0199999996,0.540000021,0,0,1,-0,-0
1.238718,1783679967.539202,20,-0.768823266,-0.279361963,24.6705608,0,0.0468790978,0.00305916718,0.994904578,-0.106495708,0.00736478809,0.0349539816,145.185013,991.924622,0,0.694000006,0.176174507,2.69772267,0.191431746,2.68926215,-0.0152572393,0.0084605217,0.995980263,1.00899994,-1.60000002,-1.60000002,-3,-0.200000003,0,0,3.0999999,3,2.5,0,0,0,6.78822471e-05,3.39411272e-05,0,0,0.0377729647,0.04425909,0.226637781,0.266158968,0.226637781,0,-0,0.265554547,0.000604435452,0,1467,1933,1405,1449,6,-6,21.6700001,0,0.0199999996,0.540000021,0,0,1,0.000848528114,0.000424264115
1.287631,1783679967.588115,21,-0.763255656,-0.269587278,24.6708279,0,0.0477599204,0.00341404416,0.994449317,0.00517651765,0.0590004101,0.0386327356,145.235001,991.924622,0,0.282000005,0.196701378,2.74958682,0.196939006,2.69886708,-0.000237628818,0.050719738,0.995980263,1.00899994,-1.60000002,-1.60000002,-3,-0.200000003,0,0,3.0999999,3,2.5,0,0,0,0,0,0,0,0.0377729647,0.04425909,0.226637781,0.266158968,0.226637781,0,-0,0.265554547,0.000604435452,0,1467,1933,1405,1449,6,-6,21.6700001,0,0.0199999996,0.540000021,0,0,1,-0,-0
1.331804,1783679967.632288,22,-0.766728282,-0.259049416,24.6721039,0,0.0464442186,0.0028342458,0.994826257,-0.115653716,-0.0881439373,0.0111864032,145.285004,991.924622,0,0.879000068,0.163234413,2.67294526,0.193588302,2.7097578,-0.0303538889,-0.0368125439,0.995952487,1.01600003,-1.60000002,-1.60000002,-3,-0.200000003,0,0,3.0999999,3,2.5,-5.03110896e-05,4.78074726e-05,9.44137628e-06,3.38893988e-05,4.91460845e-08,0,0,0.0377729647,0.04425909,0.226637781,0.266158968,0.226637781,0,-0,0.265554547,0.000604435452,0,1467,1933,1405,1449,6,-6,21.6700001,0,0.0199999996,0.540000021,0,0,1,0.000424264028,-0
1.393335,1783679967.693819,23,-0.762672901,-0.261697054,24.6722088,0,0.0475157499,0.00397860352,0.994101763,0.0454896688,0.10090816,0.00955439452,145.335007,991.924622,0,0.479000032,0.229308471,2.73650026,0.197392792,2.70684218,0.0319156796,0.0296580791,0.99598819,1.00699997,-1.60000002,-1.60000002,-3,-0.200000003,0,0,3.0999999,3,2.5,0,0,0,0,6.78822398e-05,0,0,0.0377729647,0.04425909,0.226637781,0.266158968,0.226637781,0,-0,0.265554547,0.000604435452,0,1467,1933,1405,1449,6,-6,21.6700001,0,0.0199999996,0.540000021,0,0,1,-0,0.000848528056
1.456624,1783679967.757108,24,-0.763269782,-0.256990433,24.6726608,0,0.0480263568,0.00331100915,0.993935883,-0.0736778975,-0.0438365228,0.0334758423,145.38501,991.924622,0,0.0800000057,0.190863565,2.76632905,0.196948379,2.71144724,-0.00608481467,0.0548818111,0.995980263,1.00899994,-1.60000002,-1.60000002,-3,-0.200000003,0,0,3.0999999,3,2.5,0,0,0,3.39411199e-05,0,0,0,0.0377729647,0.04425909,0.226637781,0.266158968,0.226637781,0,-0,0.265554547,0.000604435452,0,1467,1933,1405,1449,6,-6,21.6700001,0,0.0199999996,0.540000021,0,0,1,0.000424264028,-0
1.519104,1783679967.819588,25,-0.761273146,-0.264271498,24.6736259,0,0.0463901386,0.00347470376,0.994529068,-0.0206221174,-0.00240928493,0.0317823924,145.435013,991.916687,0,0.674000025,0.200180233,2.67062855,0.198915482,2.70452285,0.00126475096,-0.0338943005,0.995980263,1.00899994,-1.60000002,-1.60000002,-3,-0.200000003,0,0,3.0999999,3,2.5,0,0,0,-1.697056e-05,-1.697056e-05,0,0,0.0377729647,0.04425909,0.226637781,0.266158968,0.226637781,0,-0,0.265554547,0.000604435452,0,1467,1933,1405,1449,6,-6,21.6700001,0,0.0199999996,0.540000021,0,0,1,-0.000212132014,-0.000212132014
1.580836,1783679967.881321,26,-0.765088499,-0.274091244,24.6737652,0,0.0465891361,0.0024110151,0.994312286,-0.0943855196,0.0127166472,0.00949362479,145.485001,991.916687,0,0.26700002,0.138930917,2.68266034,0.195331916,2.69461489,-0.0564009994,-0.011954546,0.995980263,1.00899994,-1.60000002,-1.60000002,-3,-0.200000003,0,0,3.0999999,3,2.5,0,0,0,3.39411199e-05,3.39411199e-05,0,0,0.0377729647,0.04425909,0.226637781,0.266158968,0.226637781,0,-0,0.265554547,0.000604435452,0,1467,1933,1405,1449,6,-6,21.6700001,0,0.0199999996,0.540000021,0,0,1,0.000424264028,0.000424264028
1.642446,1783679967.942931,27,-0.760815382,-0.280823708,24.6751556,0,0.0454280898,0.00396515708,0.994340241,-0.0350945555,-0.0595995001,0.0307049602,145.535004,991.916687,0,0.873000026,0.228478715,2.61581326,0.199262023,2.68812227,0.0292166919,-0.0723090172,0.9960199,0.999000013,-1.60000002,-1.60000002,-3,-0.200000003,0,0,3.0999999,3,2.5,1.97499994e-05,-9.646744e-05,-2.8266908e-05,-1.69506511e-05,-1.70677995e-05,0,0,0.0377729647,0.04425909,0.226637781,0.266158968,0.226637781,0,-0,0.265554547,0.000604435452,0,1467,1933,1405,1449,6,-6,21.6700001,0,0.0199999996,0.540000021,0,0,1,-0.000212132014,-0.000212132014
1.687449,1783679967.987933,28,-0.763720036,-0.291175604,24.6756668,0,0.0452352129,0.00255660107,0.994265676,-0.0358909145,0.108356088,0.0357397497,145.585007,991.916687,0,0.489000022,0.147326961,2.60492992,0.196672037,2.67777538,-0.0493450761,-0.072845459,0.995980263,1.00899994,-1.60000002,-1.60000002,-3,-0.200000003,0,0,3.0999999,3,2.5,0,0,0,-6.78822398e-05,6.78822398e-05,0,0,0.0377729647,0.04425909,0.226637781,0.266158968,0.226637781,0,-0,0.265554547,0.000604435452,0,1467,1933,1405,1449,6,-6,21.6700001,0,0.0199999996,0.540000021,0,0,1,-0.000848528056,0.000848528056
1.732890,1783679968.033375,29,-0.763638794,-0.301253796,24.6761227,0,0.0457534939,0.00342965336,0.994216144,-0.0199311711,-0.121974945,0.0421517789,145.63501,991.916687,0,0.0790000036,0.197647035,2.63485789,0.196550474,2.66753578,0.00109656155,-0.0326778889,0.995980263,1.00899994,-1.60000002,-1.60000002,-3,-0.200000003,0,0,3.0999999,3,2.5,0,0,0,0,0,0,0,0.0377729647,0.04425909,0.226637781,0.266158968,0.226637781,0,-0,0.265554547,0.000604435452,0,1467,1933,1405,1449,6,-6,21.6700001,0,0.0199999996,0.540000021,0,0,1,-0,-0
1.810336,1783679968.110821,30,-0.766640544,-0.309308052,24.6775627,0,0.045530621,0.00266940007,0.995592952,-0.0677318797,0.0437277183,0.0223127492,145.685013,991.964294,0,0.666000009,0.153622001,2.61842632,0.193714276,2.65951514,-0.0400922745,-0.0410888195,0.995980263,1.00899994,-1.60000002,-1.60000002,-3,-0.200000003,0,0,3.0999999,3,2.5,0,0,0,-3.39411199e-05,3.39411199e-05,0,0,0.0377729647,0.04425909,0.226637781,0.266158968,0.226637781,0,-0,0.265554547,0.000604435452,0,1467,1933,1405,1449,6,-6,21.6700001,0,0.0199999996,0.540000021,0,0,1,-0.000424264028,0.000424264028
1.871865,1783679968.172349,31,-0.762902796,-0.31035924,24.677887,0,0.0465470254,0.00379342865,0.994291902,-0.0379671156,0.0642716289,-0.000303548761,145.735001,991.964294,0,0.265000015,0.218594149,2.68028235,0.197207287,2.65821266,0.0213868618,0.0220696926,0.996091306,0.981000006,-1.60000002,-1.60000002,-3,-0.200000003,0,0,3.0999999,3,2.5,0,0,0,0,6.78822398e-05,0,0,0.0377729647,0.04425909,0.226637781,0.266158968,0.226637781,0,-0,0.265554547,0.000604435452,0,1467,1933,1405,1449,6,-6,21.6700001,0,0.0199999996,0.540000021,0,0,1,-0,0.000848528056
1.902417,1783679968.202902,32,-0.764085412,-0.316041708,24.6787472,0,0.0454075187,0.00321472762,0.994032979,-0.00222434755,-0.056107197,0.0360191017,145.785004,991.964294,0,0.896000028,0.185295343,2.6154449,0.196151897,2.6527667,-0.0108565539,-0.037321806,0.995980263,1.00899994,-1.60000002,-1.60000002,-3,-0.200000003,0,0,3.0999999,3,2.5,-2.80559084e-06,-5.26779149e-05,-6.7119603e-05,-5.09145102e-05,1.691746e-05,0,0,0.0377729647,0.04425909,0.226637781,0.266158968,0.226637781,0,-0,0.265554547,0.000604435452,0,1467,1933,1405,1449,6,-6,21.6700001,0,0.0199999996,0.540000021,0,0,1,-0.000636396057,0.000212132014
1.996496,1783679968.296981,33,-0.763026536,-0.318921566,24.6798725,0,0.046255827,0.00352413836,0.993720889,-0.0688223541,0.073179014,0.0160995051,145.835007,991.964294,0,0.487000018,0.203193292,2.66506982,0.19714351,2.64967656,0.00604978204,0.0153932571,0.996087432,0.982000053,-1.60000002,-1.60000002,-3,-0.200000003,0,0,3.0999999,3,2.5,0,0,0,3.39411199e-05,3.39411199e-05,0,0,0.0377729647,0.04425909,0.226637781,0.266158968,0.226637781,0,-0,0.265554547,0.000604435452,0,1467,1933,1405,1449,6,-6,21.6700001,0,0.0199999996,0.540000021,0,0,1,0.000424264028,0.000424264028
2.028036,1783679968.328521,34,-0.765330911,-0.308330297,24.6800785,0,0.0476912186,0.00268046092,0.994550705,-0.0244938396,-0.101766959,0.024547115,145.88501,991.964294,0,0.107000008,0.154420212,2.74536419,0.195025712,2.6599853,-0.0406055003,0.0853788853,0.99598819,1.00699997,-1.60000002,-1.60000002,-3,-0.200000003,0,0,3.0999999,3,2.5,0,0,0,-1.697056e-05,-1.697056e-05,0,0,0.0377729647,0.04425909,0.226637781,0.266158968,0.226637781,0,-0,0.265554547,0.000604435452,0,1467,1933,1405,1449,6,-6,21.6700001,0,0.0199999996,0.540000021,0,0,1,-0.000212132014,-0.000212132014
2.090193,1783679968.390677,35,-0.765913248,-0.310399532,24.6804085,0,0.0458822288,0.00379302795,0.994578004,-0.0270294026,0.0249426551,0.0224294197,145.935013,991.960327,0,0.66900003,0.218508199,2.64129782,0.19418256,2.6583271,0.024325639,-0.0170292854,0.995976269,1.00999999,-1.60000002,-1.60000002,-3,-0.200000003,0,0,3.0999999,3,2.5,0,0,0,-5.09116835e-05,1.697056e-05,0,0,0.0377729647,0.04425909,0.226637781,0.266158968,0.226637781,0,-0,0.265554547,0.000604435452,0,1467,1933,1405,1449,6,-6,21.6700001,0,0.0199999996,0.540000021,0,0,1,-0.000636396057,0.000212132014
2.153428,1783679968.453912,36,-0.764548421,-0.313314915,24.6808815,0,0.0448285267,0.0026440369,0.994563282,-0.0191086084,-0.0310981125,0.0167687461,145.985001,991.960327,0,0.249000013,0.152319923,2.58077002,0.19581981,2.6556437,-0.043499887,-0.0748736858,0.99598819,1.00699997,-1.60000002,-1.60000002,-3,-0.200000003,0,0,3.0999999,3,2.5,0,0,0,-3.39411199e-05,-3.39411199e-05,0,0,0.0377729647,0.04425909,0.226637781,0.266158968,0.226637781,0,-0,0.265554547,0.000604435452,0,1467,1933,1405,1449,6,-6,21.6700001,0,0.0199999996,0.540000021,0,0,1,-0.000424264028,-0.000424264028
2.216585,1783679968.517070,37,-0.764074981,-0.325177908,24.6820393,0,0.0448319018,0.0037755596,0.993702114,-0.0777986422,-0.109263033,0.0756263435,146.035004,991.960327,0,0.882000029,0.217693597,2.5831883,0.196031556,2.64372373,0.0216620415,-0.0605354309,0.995976269,1.00999999,-1.60000002,-1.60000002,-3,-0.200000003,0,0,3.0999999,3,2.5,-5.11246944e-05,0.000124163038,-6.09397903e-05,-1.70220937e-05,-1.68454044e-05,0,0,0.0377729647,0.04425909,0.226637781,0.266158968,0.226637781,0,-0,0.265554547,0.000604435452,0,1467,1933,1405,1449,6,-6,21.6700001,0,0.0199999996,0.540000021,0,0,1,-0.000212132014,-0.000212132014
2.248105,1783679968.548590,38,-0.764372766,-0.332136631,24.6833324,0,0.0450426489,0.00269092433,0.994506299,-0.00876289234,0.018929407,-0.0179754756,146.085007,991.960327,0,0.452000022,0.155029923,2.5932281,0.195985377,2.6366961,-0.0409554541,-0.0434679985,0.995984197,1.00800002,-1.60000002,-1.60000002,-3,-0.200000003,0,0,3.0999999,3,2.5,0,0,0,-1.697056e-05,-5.09116835e-05,0,0,0.0377729647,0.04425909,0.226637781,0.266158968,0.226637781,0,-0,0.265554547,0.000604435452,0,1467,1933,1405,1449,6,-6,21.6700001,0,0.0199999996,0.540000021,0,0,1,-0.000212132014,-0.000636396057
2.310552,1783679968.611037,39,-0.765296638,-0.342097282,24.684042,0,0.0450538248,0.00402285438,0.994036376,-0.039449323,-0.0924440399,0.0152288973,146.13501,991.960327,0,0.0840000063,0.231874153,2.59508348,0.194747955,2.626688,0.0371261984,-0.0316045284,0.995984197,1.00800002,-1.60000002,-1.60000002,-3,-0.200000003,0,0,3.0999999,3,2.5,0,0,0,3.39411199e-05,3.39411199e-05,0,0,0.0377729647,0.04425909,0.226637781,0.266158968,0.226637781,0,-0,0.265554547,0.000604435452,0,1467,1933,1405,1449,6,-6,21.6700001,0,0.0199999996,0.540000021,0,0,1,0.000424264028,0.000424264028
2.373167,1783679968.673652,40,-0.763267875,-0.342451572,24.684473,0,0.0463126563,0.00364359189,0.994674504,-0.0014865835,-0.0325299501,0.0226798113,146.185013,991.932556,0,0.671000004,0.20987922,2.66578364,0.19687362,2.62604713,0.0130055994,0.0397365093,0.995984197,1.00800002,-1.60000002,-1.60000002,-3,-0.200000003,0,0,3.0999999,3,2.5,0,0,0,5.09116871e-05,5.09116871e-05,0,0,0.0377729647,0.04425909,0.226637781,0.266158968,0.226637781,0,-0,0.265554547,0.000604435452,0,1467,1933,1405,1449,6,-6,21.6700001,0,0.0199999996,0.540000021,0,0,1,0.000636396115,0.000636396115
2.435184,1783679968.735668,41,-0.767059028,-0.336668253,24.685379,0,0.0452031456,0.00337776425,0.994571388,-0.0577062704,0.000453483313,7.30487518e-05,146.235001,991.932556,0,0.238000005,0.194587231,2.60228038,0.193128809,2.63210988,0.00145842135,-0.0298295021,0.995980263,1.00899994,-1.60000002,-1.60000002,-3,-0.200000003,0,0,3.0999999,3,2.5,0,0,0,0,0,0,0,0.0377729647,0.04425909,0.226637781,0.266158968,0.226637781,0,-0,0.265554547,0.000604435452,0,1467,1933,1405,1449,6,-6,21.6700001,0,0.0199999996,0.540000021,0,0,1,-0,-0
2.480333,1783679968.780818,42,-0.762000084,-0.340614796,24.6857967,0,0.0449524038,0.00392990373,0.994369745,0.0132324062,-0.0409248173,0.0608483218,146.285004,991.932556,0,0.866000056,0.226440653,2.58838391,0.198079586,2.62820363,0.0283610672,-0.0398197174,0.995980263,1.00899994,-1.60000002,-1.60000002,-3,-0.200000003,0,0,3.0999999,3,2.5,0.000152624852,9.31795003e-05,-7.64465367e-05,1.71283737e-05,-1.68742117e-05,0,0,0.0377729647,0.04425909,0.226637781,0.266158968,0.226637781,0,-0,0.265554547,0.000604435452,0,1467,1933,1405,1449,6,-6,21.6700001,0,0.0199999996,0.540000021,0,0,1,0.000212132014,-0.000212132014
2.542354,1783679968.842839,43,-0.765273273,-0.342382431,24.6866913,0,0.0461381711,0.0030685633,0.994061232,-0.0902774781,0.0113808624,0.0166526586,146.335007,991.932556,0,0.455000013,0.176865533,2.6573956,0.194991186,2.62615371,-0.0181256533,0.0312418938,0.996095359,0.980000019,-1.60000002,-1.60000002,-3,-0.200000003,0,0,3.0999999,3,2.5,0,0,0,3.39411199e-05,-3.39411199e-05,0,0,0.0377729647,0.04425909,0.226637781,0.266158968,0.226637781,0,-0,0.265554547,0.000604435452,0,1467,1933,1405,1449,6,-6,21.6700001,0,0.0199999996,0.540000021,0,0,1,0.000424264028,-0.000424264028
2.618194,1783679968.918679,44,-0.765582263,-0.341674566,24.6869507,0,0.0448682532,0.00313560921,0.994532228,0.0443000235,-0.0145463571,-0.00163513655,146.38501,991.932556,0,0.074000001,0.180644304,2.58313084,0.194670811,2.62717009,-0.0140265077,-0.0440392494,0.995766044,1.06299996,-1.60000002,-1.60000002,-3,-0.200000003,0,0,3.0999999,3,2.5,0,0,0,0,0,0,0,0.0377729647,0.04425909,0.226637781,0.266158968,0.226637781,0,-0,0.265554547,0.000604435452,0,1467,1933,1405,1449,6,-6,21.6700001,0,0.0199999996,0.540000021,0,0,1,-0,-0
2.652624,1783679968.953109,45,-0.76725769,-0.344362736,24.6880646,0,0.0456687473,0.00326814339,0.994197369,-0.118351676,0.0447930992,0.0131753907,146.435013,991.940491,0,0.629000008,0.188343033,2.6300354,0.192954555,2.62427235,-0.00461152196,0.00576305389,0.995980263,1.00899994,-1.60000002,-1.60000002,-3,-0.200000003,0,0,3.0999999,3,2.5,0,0,0,-1.697056e-05,1.697056e-05,0,0,0.0377729647,0.04425909,0.226637781,0.266158968,0.226637781,0,-0,0.265554547,0.000604435452,0,1467,1933,1405,1449,6,-6,21.6700001,0,0.0199999996,0.540000021,0,0,1,-0.000212132014,0.000212132014
2.760469,1783679969.060954,46,-0.761054337,-0.33049655,24.6891308,0,0.0475091785,0.00350911892,0.994986773,-0.0311555974,0.0205649324,0.0381802171,146.485001,991.940491,0,0.214000016,0.202069893,2.73369741,0.199127555,2.63777614,0.00294233859,0.095921278,0.995980263,1.00899994,-1.60000002,-1.60000002,-3,-0.200000003,0,0,3.0999999,3,2.5,0,0,0,-3.39411199e-05,3.39411199e-05,0,0,0.0377729647,0.04425909,0.226637781,0.266158968,0.226637781,0,-0,0.265554547,0.000604435452,0,1467,1933,1405,1449,6,-6,21.6700001,0,0.0199999996,0.540000021,0,0,1,-0.000424264028,0.000424264028
2.791483,1783679969.091968,47,-0.765666664,-0.325256109,24.6897907,0,0.0460965522,0.00278506032,0.994597495,-0.0464348495,-0.0519303009,0.0230632834,146.535004,991.940491,0,0.851000011,0.160438552,2.65357494,0.194664761,2.64336085,-0.0342262089,0.0102140903,0.995976269,1.00999999,-1.60000002,-1.60000002,-3,-0.200000003,0,0,3.0999999,3,2.5,0,0,0,-3.39411199e-05,3.39411199e-05,0,0,0.0377729647,0.04425909,0.226637781,0.266158968,0.226637781,0,-0,0.265554547,0.000604435452,0,1467,1933,1405,1449,6,-6,21.6700001,0,0.0199999996,0.540000021,0,0,1,-0.000424264028,0.000424264028
2.822223,1783679969.122708,48,-0.761088967,-0.319606543,24.6904736,0,0.0456669964,0.00373207731,0.994466722,-0.0208252296,0.044530008,-0.00938957743,146.585007,991.940491,0,0.44600001,0.215021044,2.62921906,0.199040577,2.64913154,0.0159804672,-0.0199124813,0.99598819,1.00699997,-1.60000002,-1.60000002,-3,-0.200000003,0,0,3.0999999,3,2.5,0,0,0,1.697056e-05,1.697056e-05,0,0,0.0377729647,0.04425909,0.226637781,0.266158968,0.226637781,0,-0,0.265554547,0.000604435452,0,1467,1933,1405,1449,6,-6,21.6700001,0,0.0199999996,0.540000021,0,0,1,0.000212132014,0.000212132014
2.885636,1783679969.186121,49,-0.760413885,-0.318038702,24.6912918,0,0.0464750305,0.00252761273,0.9950881,-0.0580504648,-0.072996892,0.0472396873,146.63501,991.940491,0,0.0690000057,0.145536095,2.67401552,0.200000271,2.65052462,-0.0544641763,0.0234909058,0.995952487,1.01600003,-1.60000002,-1.60000002,-3,-0.200000003,0,0,3.0999999,3,2.5,0.000116270188,-4.22414405e-06,9.97924872e-05,-5.07935547e-05,1.6966269e-05,0,0,0.0377729647,0.04425909,0.226637781,0.266158968,0.226637781,0,-0,0.265554547,0.000604435452,0,1467,1933,1405,1449,6,-6,21.6700001,0,0.0199999996,0.540000021,0,0,1,-0.000636396057,0.000212132014
2.948704,1783679969.249189,50,-0.759570837,-0.309562206,24.6922188,0,0.0471495241,0.00321815652,0.994796932,-0.0328214392,0.0750798583,0.00570448395,146.685013,991.968262,0,0.646000028,0.185350537,2.71355319,0.200684473,2.65887642,-0.0153339356,0.0546767712,0.995984197,1.00800002,-1.60000002,-1.60000002,-3,-0.200000003,0,0,3.0999999,3,2.5,0,0,0,-6.78822471e-05,3.39411272e-05,0,0,0.0377729647,0.04425909,0.226637781,0.266158968,0.226637781,0,-0,0.265554547,0.000604435452,0,1467,1933,1405,1449,6,-6,21.6700001,0,0.0199999996,0.540000021,0,0,1,-0.000848528114,0.000424264115
3.011378,1783679969.311862,51,-0.760669887,-0.293912888,24.6925259,0,0.0489016995,0.00284154573,0.994981825,-0.0416229367,-0.0707790405,0.00608989084,146.735001,991.968262,0,0.236000016,0.163629264,2.81371665,0.199668556,2.67418504,-0.0360392928,0.139531612,0.995984197,1.00800002,-1.60000002,-1.60000002,-3,-0.200000003,0,0,3.0999999,3,2.5,0,0,0,0,0,0,0,0.0377729647,0.04425909,0.226637781,0.266158968,0.226637781,0,-0,0.265554547,0.000604435452,0,1467,1933,1405,1449,6,-6,21.6700001,0,0.0199999996,0.540000021,0,0,1,-0,-0
3.073086,1783679969.373570,52,-0.760290384,-0.287971497,24.6936302,0,0.045353394,0.00314169098,0.995150685,-0.0218937192,-0.0269998834,0.0190517772,146.785004,991.968262,0,0.857000053,0.180882201,2.60940218,0.19998005,2.68097425,-0.0190978497,-0.0715720654,0.995980263,1.00899994,-1.60000002,-1.60000002,-3,-0.200000003,0,0,3.0999999,3,2.5,0,0,0,0,0,0,0,0.0377729647,0.04425909,0.226637781,0.266158968,0.226637781,0,-0,0.265554547,0.000604435452,0,1467,1933,1405,1449,6,-6,21.6700001,0,0.0199999996,0.540000021,0,0,1,-0,-0
3.134704,1783679969.435189,53,-0.763321102,-0.289825916,24.6945267,0,0.0476037897,0.00331795914,0.994601548,-0.0267067514,0.0149284201,0.0337044708,146.835007,991.968262,0,0.428000033,0.191136196,2.74019408,0.196895123,2.67859125,-0.00575892627,0.0616028309,0.996087432,0.982000053,-1.60000002,-1.60000002,-3,-0.200000003,0,0,3.0999999,3,2.5,0,0,0,-1.697056e-05,1.697056e-05,0,0,0.0377729647,0.04425909,0.226637781,0.266158968,0.226637781,0,-0,0.265554547,0.000604435452,0,1467,1933,1405,1449,6,-6,21.6700001,0,0.0199999996,0.540000021,0,0,1,-0.000212132014,0.000212132014
3.166604,1783679969.467088,54,-0.759834647,-0.280558109,24.6959324,0,0.0464694351,0.00400395179,0.994672,-0.0654701144,-0.0632940456,0.0132922297,146.88501,991.968262,0,0.0670000017,0.230637133,2.67479777,0.200234547,2.6881547,0.0304025859,-0.0133569241,0.995904863,1.028,-1.60000002,-1.60000002,-3,-0.200000003,0,0,3.0999999,3,2.5,-5.10692598e-06,9.12813848e-05,8.68034404e-05,-5.24992005e-09,9.38372651e-08,0,0,0.0377729647,0.04425909,0.226637781,0.266158968,0.226637781,0,-0,0.265554547,0.000604435452,0,1467,1933,1405,1449,6,-6,21.6700001,0,0.0199999996,0.540000021,0,0,1,-0,-0
3.229566,1783679969.530051,55,-0.760121763,-0.277650118,24.696579,0,0.0464809388,0.00296743307,0.994053543,-0.0174075589,0.0350166187,0.034834832,146.935013,991.892883,0,0.632000029,0.171037957,2.67713094,0.200185761,2.69106245,-0.0291478038,-0.0139315128,0.996095359,0.980000019,-1.60000002,-1.60000002,-3,-0.200000003,0,0,3.0999999,3,2.5,0,0,0,-1.697056e-05,1.697056e-05,0,0,0.0377729647,0.04425909,0.226637781,0.266158968,0.226637781,0,-0,0.265554547,0.000604435452,0,1467,1933,1405,1449,6,-6,21.6700001,0,0.0199999996,0.540000021,0,0,1,-0.000212132014,0.000212132014
3.305925,1783679969.606410,56,-0.762475729,-0.267188787,24.697403,0,0.0484120473,0.00334192137,0.994536996,-0.0318668745,-0.0435237102,0.0232004728,146.985001,991.892883,0,0.184000015,0.192529067,2.78682709,0.197738901,2.70112514,-0.00520983338,0.0857019424,0.995984197,1.00800002,-1.60000002,-1.60000002,-3,-0.200000003,0,0,3.0999999,3,2.5,0,0,0,-5.09116871e-05,5.09116871e-05,0,0,0.0377729647,0.04425909,0.226637781,0.266158968,0.226637781,0,-0,0.265554547,0.000604435452,0,1467,1933,1405,1449,6,-6,21.6700001,0,0.0199999996,0.540000021,0,0,1,-0.000636396115,0.000636396115
3.368911,1783679969.669395,57,-0.762851238,-0.256654978,24.6979237,0,0.0468954295,0.00271145557,0.994202375,-0.0251082592,0.0231382344,0.034708716,147.035004,991.892883,0,0.820000052,0.15626052,2.70056701,0.197508246,2.71204925,-0.0412477255,-0.0114822388,0.995980263,1.00899994,-1.60000002,-1.60000002,-3,-0.200000003,0,0,3.0999999,3,2.5,0,0,0,-3.39411199e-05,3.39411199e-05,0,0,0.0377729647,0.04425909,0.226637781,0.266158968,0.226637781,0,-0,0.265554547,0.000604435452,0,1467,1933,1405,1449,6,-6,21.6700001,0,0.0199999996,0.540000021,0,0,1,-0.000424264028,0.000424264028
3.430806,1783679969.731290,58,-0.764443994,-0.245972633,24.6986942,0,0.0479983948,0.00339644239,0.994221985,-0.070427984,-0.01197749,0.018746525,147.085007,991.892883,0,0.398000032,0.195731997,2.76392579,0.19574976,2.7225194,-1.77621841e-05,0.0414063931,0.99598819,1.00699997,-1.60000002,-1.60000002,-3,-0.200000003,0,0,3.0999999,3,2.5,0,0,0,-1.697056e-05,1.697056e-05,0,0,0.0377729647,0.04425909,0.226637781,0.266158968,0.226637781,0,-0,0.265554547,0.000604435452,0,1467,1933,1405,1449,6,-6,21.6700001,0,0.0199999996,0.540000021,0,0,1,-0.000212132014,0.000212132014
3.462368,1783679969.762853,59,-0.764537573,-0.233762026,24.6999378,0,0.0481752306,0.00307292794,0.993921459,-0.0235886164,-0.0836262703,0.0462726355,147.13501,991.892883,0,0.0700000003,0.177142009,2.7749331,0.195731789,2.73473239,-0.0185897797,0.0402007103,0.995928586,1.02199996,-1.60000002,-1.60000002,-3,-0.200000003,0,0,3.0999999,3,2.5,-7.07227009e-05,-0.00010579035,0.0001143837,-7.22785956e-08,0.000101715254,0,0,0.0377729647,0.04425909,0.226637781,0.266158968,0.226637781,0,-0,0.265554547,0.000604435452,0,1467,1933,1405,1449,6,-6,21.6700001,0,0.0199999996,0.540000021,0,0,1,-0,0.00127279223
3.524992,1783679969.825477,60,-0.762878239,-0.233123064,24.7007198,0,0.0476745479,0.0033805503,0.994325936,-0.0359898582,0.0496960282,0.031028606,147.185013,991.95636,0,0.606000006,0.194795817,2.74501967,0.197325602,2.73549676,-0.00252978504,0.00952291489,0.995984197,1.00800002,-1.60000002,-1.60000002,-3,-0.200000003,0,0,3.0999999,3,2.5,0,0,0,-1.697056e-05,1.697056e-05,0,0,0.0377729647,0.04425909,0.226637781,0.266158968,0.226637781,0,-0,0.265554547,0.000604435452,0,1467,1933,1405,1449,6,-6,21.6700001,0,0.0199999996,0.540000021,0,0,1,-0.000212132014,0.000212132014
3.587515,1783679969.888000,61,-0.761000812,-0.22953105,24.7016697,0,0.047940094,0.00360068399,0.994558036,-0.0195201952,-0.0828118771,0.00564705068,147.235001,991.95636,0,0.170000002,0.207431927,2.75964069,0.199159667,2.73904443,0.00827226043,0.0205962658,0.995984197,1.00800002,-1.60000002,-1.60000002,-3,-0.200000003,0,0,3.0999999,3,2.5,0,0,0,-3.39411199e-05,0,0,0,0.0377729647,0.04425909,0.226637781,0.266158968,0.226637781,0,-0,0.265554547,0.000604435452,0,1467,1933,1405,1449,6,-6,21.6700001,0,0.0199999996,0.540000021,0,0,1,-0.000424264028,-0
3.650650,1783679969.951134,62,-0.761826217,-0.231379986,24.7020473,0,0.0469839275,0.00293010427,0.994540393,-0.0339693874,0.125519678,-0.0799799338,147.285004,991.95636,0,0.802000046,0.168803722,2.70473623,0.198486894,2.73740983,-0.0296831727,-0.0326735973,0.995976269,1.00999999,-1.60000002,-1.60000002,-3,-0.200000003,0,0,3.0999999,3,2.5,0,0,0,-3.39411199e-05,3.39411199e-05,0,0,0.0377729647,0.04425909,0.226637781,0.266158968,0.226637781,0,-0,0.265554547,0.000604435452,0,1467,1933,1405,1449,6,-6,21.6700001,0,0.0199999996,0.540000021,0,0,1,-0.000424264028,0.000424264028
3.714201,1783679970.014686,63,-0.835997939,-0.323254824,24.7365131,0,0.0616782643,-0.000657252385,0.995830476,-0.722364724,-2.98739958,0.328819871,147.335007,991.95636,0,0.363000005,-0.0378154516,3.54417229,0.12484771,2.64178681,-0.162663162,0.902385473,0.995992124,1.00599992,-1.60000002,-1.60000002,-3,-0.200000003,0,0,3.0999999,3,2.5,0,0,0,0,3.39411199e-05,0,0,0.0377729647,0.04425909,0.226637781,0.266158968,0.226637781,0,-0,0.265554547,0.000604435452,0,1467,1933,1405,1449,6,-6,21.6700001,0,0.0199999996,0.540000021,0,0,1,-0,0.000424264028
3.745365,1783679970.045849,64,-0.729870558,-0.36951375,24.7280674,0,0.0146587603,0.0540877171,0.986026049,3.24187469,6.23679352,-2.45281839,147.38501,991.95636,0,0.0700000003,3.13977027,0.85044682,0.218394518,2.60631394,2.92137575,-1.75586712,0.995916784,1.02499998,-1.60000002,-1.60000002,-3,-0.200000003,0,0,3.0999999,3,2.5,-0.0104356846,-0.00722329086,-0.00201828009,-4.4637698e-05,2.65372473e-05,0,0,0.0377729647,0.04425909,0.226637781,0.266158968,0.226637781,0,-0,0.265554547,0.000604435452,0,1467,1933,1405,1449,6,-6,21.6700001,0,0.0199999996,0.540000021,0,0,1,-0.000424264028,0.000424264028
3.821861,1783679970.122345,65,-0.851003468,-0.353360653,24.6213951,0,0.0522495806,0.0225861967,1.03586864,0.417164236,-2.47390509,-3.95239139,147.435013,991.916687,0,0.587000012,1.24908566,2.88688731,0.104589626,2.61420131,1.14449608,0.272686005,0.995980263,1.00899994,-1.60000002,-1.60000002,-3,-0.200000003,0,0,3.0999999,3,2.5,0,0,0,0.000509116857,-0.000780645816,0,0,0.0377729647,0.04425909,0.226637781,0.266158968,0.226637781,0,-0,0.265554547,0.000604435452,0,1467,1933,1405,1449,6,-6,21.6700001,0,0.0199999996,0.540000021,0,0,1,0.00636396091,-0.00975807291
3.882473,1783679970.182958,66,-0.926073015,-0.209767342,24.6275768,0,0.0880986825,-0.0298284683,0.99406898,-0.959810495,1.18669844,0.459341884,147.485001,991.916687,0,0.147,-1.71872652,5.06230116,0.0411951169,2.74959445,-1.75992167,2.31270671,0.995980263,1.00899994,-1.60000002,-1.60000002,-3,-0.200000003,0,0,3.0999999,3,2.5,0,0,0,-6.78822398e-05,-6.78822398e-05,0,0,0.0377729647,0.04425909,0.226637781,0.266158968,0.226637781,0,-0,0.265554547,0.000604435452,0,1467,1933,1405,1449,6,-6,21.6700001,0,0.0199999996,0.540000021,0,0,1,-0.000848528056,-0.000848528056
3.944533,1783679970.245018,67,-0.924449742,-0.113352299,24.6426411,0,0.059890829,0.0240128916,1.00036573,-0.0258306675,-1.89406991,-0.668893635,147.535004,991.916687,0,0.756000042,1.37507033,3.42516351,0.0303330775,2.8530035,1.34473729,0.572160006,0.995976269,1.00999999,-1.60000002,-1.60000002,-3,-0.200000003,0,0,3.0999999,3,2.5,0,0,0,-0.000135764509,-3.39411272e-05,0,0,0.0377729647,0.04425909,0.226637781,0.266158968,0.226637781,0,-0,0.265554547,0.000604435452,0,1467,1933,1405,1449,6,-6,21.6700001,0,0.0199999996,0.540000021,0,0,1,-0.00169705634,-0.000424264115
3.990508,1783679970.290992,68,-0.887164712,-0.130408525,24.6829834,0,0.0499748737,-0.0252741054,0.985577047,-0.392677754,-1.73771501,4.36819029,147.585007,991.916687,0,0.347000003,-1.46896911,2.90181327,0.0792586654,2.83799291,-1.54822779,0.0638203621,0.995976269,1.00999999,-1.60000002,-1.60000002,-3,-0.200000003,0,0,3.0999999,3,2.5,0,0,0,-0.000135764494,6.78822544e-05,0,0,0.0377729647,0.04425909,0.226637781,0.266158968,0.226637781,0,-0,0.265554547,0.000604435452,0,1467,1933,1405,1449,6,-6,21.6700001,0,0.0199999996,0.540000021,0,0,1,-0.00169705623,0.000848528231
4.052866,1783679970.353350,69,-0.838670313,-0.276590586,24.6485004,0,0.0555738173,-0.0209178515,0.995069027,-0.127430946,0.917603135,0.129945874,147.63501,991.916687,0,0.0730000064,-1.20426631,3.19589877,0.125198379,2.69067097,-1.32946467,0.505227804,0.997235715,0.692999959,-1.60000002,-1.60000002,-3,-0.200000003,0,0,3.0999999,3,2.5,0.0344909877,0.268526524,0.0192400813,-0.000847187766,0.00605612388,0,0,0.000797956192,-0.0059415265,0.00478773704,-0.0356471948,0.00478773704,0,-0,-0.0356491581,1.96429482e-06,-0,1433,1876,1100,1615,6,-6,21.6700001,0,0.0199999996,0.540000021,0,0,1,-0.00275771646,0.00190918846
4.115766,1783679970.416250,70,-0.868404865,-0.187165499,24.6332836,0,0.146426409,0.0562861301,0.983787894,0.229282856,1.83730447,2.15115309,147.685013,991.964294,0,0.584000051,3.27453279,8.45209885,0.0789559931,2.75862885,3.19557691,5.69347,0.995984197,1.00800002,-1.60000002,-1.60000002,-3,-0.200000003,0,0,3.0999999,3,2.5,0.258556604,0.296721369,-0.0400987938,0.000728134299,0.019222863,0,0,-0.000467509264,-0.0189237688,-0.00280505558,-0.113527775,-0.00280505558,0,-0,-0.113542616,1.48392755e-05,-0,1429,1869,1100,1616,6,-6,21.6700001,0,0.0199999996,0.540000021,0,0,1,-0.00296984846,0.00212132046
4.147258,1783679970.447743,71,-0.799268961,-0.141196489,24.6592941,0,-0.0912721604,-0.0487746745,1.02416015,1.06006789,5.56902885,0.659775257,147.735001,991.964294,0,0.201000005,-2.72659802,-5.08695555,0.172567219,2.85937262,-2.89916515,-7.94632816,0.995984197,1.00800002,-1.60000002,-1.60000002,-3,-0.200000003,0,0,3.0999999,3,2.5,0.218909591,0.204472899,-0.0655499399,0.00355012924,0.0228742007,0,0,-0.00332946843,-0.0226680916,-0.0199768096,-0.135971934,-0.0199768096,0,-0,-0.136008546,3.6609883e-05,0,1371,1865,1100,1619,6,-6,21.6700001,0,0.0199999996,0.540000021,0,0,1,0.00148492411,0.00190918811
4.210129,1783679970.510614,72,-0.713735998,-0.118502855,24.6225433,0,0.129666597,0.063465111,1.01213217,-0.727003872,5.75652838,3.94258213,147.785004,991.964294,0,0.817000031,3.58799839,7.28637171,0.233024791,2.83232188,3.35497355,4.45405006,0.995996118,1.005,-1.60000002,-1.60000002,-3,-0.200000003,0,0,3.0999999,3,2.5,0.220134959,0.0223737378,-0.0877299383,0.00588837732,0.0261539724,0,0,-0.00566714164,-0.0261314865,-0.034002848,-0.156727135,-0.034002848,0,-0,-0.156788915,6.17857659e-05,-0,1430,1877,1100,1616,6,-6,21.6700001,0,0.0199999996,0.540000021,0,0,1,0.00424264045,0.00254558423
4.273662,1783679970.574146,73,-0.757862449,-0.179376125,24.5880013,0,0.133340985,-0.088392511,1.01934063,1.51919961,13.2872944,3.21931267,147.835007,991.964294,0,0.39200002,-4.95602751,7.42505074,0.222634763,2.77103567,-5.1786623,4.65401506,0.996079385,0.984000027,-1.60000002,-1.60000002,-3,-0.200000003,0,0,3.0999999,3,2.5,0.104948103,0.169532895,0.0248441827,0.00459110923,0.0258141551,0,0,-0.00448784046,-0.0256473348,-0.0269270428,-0.153796092,-0.0269270428,0,0,-0.153884009,8.79200306e-05,0,1367,1867,1100,1618,6,-6,21.6700001,0,0.0199999996,0.540000021,0,0,1,0.0148492437,0.0101823378
4.336181,1783679970.636666,74,-0.794603705,-0.423015356,24.5532684,0,-0.0202524252,0.0333437696,0.965741515,-2.14462376,2.05982256,-0.852305889,147.88501,991.964294,0,0.0860000029,1.97744286,-1.20065022,0.159270287,2.55870986,1.81817257,-3.75936007,0.996524155,0.871999979,-1.60000002,-1.60000002,-3,-0.200000003,0,0,3.0999999,3,2.5,-0.249763459,0.132596597,0.00416629016,-0.00260876981,0.0302144047,0,0,0.00213338947,-0.0299248993,0.0128003368,-0.179433286,0.0128003368,0,0,-0.179549396,0.000116106938,-0,1418,1870,1100,1615,6,-6,21.6700001,0,0.0199999996,0.540000021,0,0,1,0.0129400538,0.00530330185
4.399324,1783679970.699809,75,-0.873813152,-0.445068836,24.5056496,0,0.0789263844,-0.0432803854,0.98708874,1.6202631,-2.772789,0.253992081,147.935013,991.952393,0,0.535000026,-2.5106113,4.56720304,0.0968516022,2.51534939,-2.60746288,2.05185366,0.995984197,1.00800002,-1.60000002,-1.60000002,-3,-0.200000003,0,0,3.0999999,3,2.5,-0.069789201,0.189180583,0.0237815734,-0.0029282961,0.0303610563,0,0,0.00285794865,-0.0301703624,0.0171476919,-0.180874825,0.0171476919,0,-0,-0.181022167,0.000147346887,0,1461,1857,1100,1615,6,-6,21.6700001,0,0.0199999996,0.540000021,0,0,1,0.000636396057,0.00106066011
4.461047,1783679970.761532,76,-0.862393975,-0.188331842,24.4988174,0,0.0548260212,-0.0602827854,1.01510859,0.273513973,-0.569457531,-1.0280174,147.985001,991.952393,0,0.144000009,-3.39855027,3.08611512,0.111910827,2.77909207,-3.51046109,0.307023048,0.995980263,1.00899994,-1.60000002,-1.60000002,-3,-0.200000003,0,0,3.0999999,3,2.5,0.157786086,0.0818606615,0.0414643399,0.00534885796,0.0306998622,0,0,-0.00518965162,-0.030617265,-0.0311379097,-0.183525234,-0.0311379097,0,-0,-0.183703586,0.000178349408,-0,1441,1875,1100,1614,6,-6,21.6700001,0,0.0199999996,0.540000021,0,0,1,0.00190918811,0.00190918811
4.492177,1783679970.792662,77,-0.819130778,-0.16472888,24.4966717,0,0.00448868703,0.0132204778,0.998342335,-0.837046564,-2.57564664,-1.06146801,148.035004,991.952393,0,0.654000044,0.758690953,0.257585526,0.138169959,2.81585646,0.620521009,-2.55827093,0.995337844,1.171,-1.60000002,-1.60000002,-3,-0.200000003,0,0,3.0999999,3,2.5,0.0374426618,-0.0543674193,0.0695594102,0.0102219824,0.0262007006,0,0,-0.0101781366,-0.0262643639,-0.061068818,-0.157378823,-0.061068818,0,0,-0.157586187,0.000207370089,0,1464,1880,1100,1616,6,-6,21.6700001,0,0.0199999996,0.540000021,0,0,1,0.000636396057,-0.000212132014
4.553941,1783679970.854426,78,-0.865318,-0.1836586,24.5022049,0,-0.0269123148,0.0424468741,1.0087961,-1.92111742,-0.650010586,0.396499872,148.085007,991.952393,0,0.651000023,2.40939975,-1.52680433,0.085515596,2.80243683,2.32388425,-4.32924128,0.995972216,1.01100004,-1.60000002,-1.60000002,-3,-0.200000003,0,0,3.0999999,3,2.5,-0.0468578152,0.00880261697,0.0312285032,0.0114406208,0.0255908575,0,0,-0.0114879943,-0.0255819578,-0.0689279661,-0.153258473,-0.0689279661,0,-0,-0.15349175,0.000233274637,-0,1439,1885,1100,1616,6,-6,21.6700001,0,0.0199999996,0.540000021,0,0,1,-0.000636396115,-0.000636396115
4.662072,1783679970.962557,79,-0.835497677,-0.20930934,24.5144863,0,-0.0222623348,0.0025103204,1.02995396,-1.03348875,-0.979017496,-1.16019082,148.13501,991.952393,0,0.0890000015,0.139647484,-1.23824501,0.124654047,2.77057409,0.0149934366,-4.0088191,0.997199893,0.701999962,-1.60000002,-1.60000002,-3,-0.200000003,0,0,3.0999999,3,2.5,-0.0900426656,-0.0425626785,0.0160118509,0.00882850867,0.022215046,0,0,-0.00895675272,-0.0223043449,-0.0537405163,-0.133568332,-0.0537405163,0,0,-0.133826077,0.000257747422,0,1414,1880,1100,1617,6,-6,21.6700001,0,0.0199999996,0.540000021,0,0,1,0.000848527998,0.00212132023
4.694146,1783679970.994630,80,-0.829779506,-0.197401524,24.530159,0,-0.0119679552,0.0169079397,1.0415951,-0.992526293,1.16950345,1.75112772,148.185013,991.91272,0,0.84800005,0.929985642,-0.658214331,0.127190322,2.78508449,0.802795291,-3.44329882,0.995984197,1.00800002,-1.60000002,-1.60000002,-3,-0.200000003,0,0,3.0999999,3,2.5,-0.0154979862,-0.0344549865,0.0193493627,0.00678008003,0.0199809279,0,0,-0.00679570204,-0.0200156588,-0.0407742113,-0.119814835,-0.0407742113,0,-0,-0.120093957,0.000279119995,0,1409,1883,1100,1618,6,-6,21.6700001,0,0.0199999996,0.540000021,0,0,1,-0.000848528114,0.00466690445
4.724715,1783679971.025199,81,-0.800026655,-0.222559929,24.5283585,0,0.0320099741,-0.0243465416,1.02657306,0.606387854,-3.78098965,-0.463252306,148.235001,991.91272,0,0.123000003,-1.35859084,1.78548169,0.1662907,2.74997139,-1.5248816,-0.964489698,0.995984197,1.00800002,-1.60000002,-1.60000002,-3,-0.200000003,0,0,3.0999999,3,2.5,-0.0746616572,-0.025267195,-0.0422207043,0.00489853323,0.0154507197,0,0,-0.00497379201,-0.0154761886,-0.029842753,-0.0925598964,-0.029842753,0,0,-0.0928571299,0.000297236256,0,1451,1870,1100,1613,6,-6,21.6700001,0,0.0199999996,0.540000021,0,0,1,-0.00318198022,0.00275771623
4.787347,1783679971.087832,82,-0.827199697,-0.214251995,24.5096817,0,0.129917815,0.00947007164,0.949266553,0.375137508,-1.76392579,3.17224526,148.285004,991.91272,0,0.756000042,0.571575165,7.79277229,0.131225631,2.73409152,0.440349519,5.05868053,0.995984197,1.00800002,-1.60000002,-1.60000002,-3,-0.200000003,0,0,3.0999999,3,2.5,0.0143815242,0.0641546398,-0.0183860809,0.00380206946,0.013265457,0,0,-0.00378757296,-0.0132007888,-0.0227254368,-0.0788933709,-0.0227254368,0,0,-0.0792047307,0.000311362004,-0,1469,1869,1100,1616,6,-6,21.6700001,0,0.0199999996,0.540000021,0,0,1,0.00127279211,0.00212132023
4.850639,1783679971.151123,83,-0.830818534,-0.202445745,24.5144253,0,-0.0135095157,0.0291973799,1.02156556,-1.60698581,5.06222916,3.54731846,148.335007,991.91272,0,0.344000012,1.63712585,-0.757344663,0.12329594,2.78041935,1.51382995,-3.53776407,0.995984197,1.00800002,-1.60000002,-1.60000002,-3,-0.200000003,0,0,3.0999999,3,2.5,0.0129335336,-0.0160406623,0.0361597836,0.00234358408,0.0132896882,0,0,-0.0023305472,-0.0133058568,-0.0139832832,-0.0795103461,-0.0139832832,0,-0,-0.0798351392,0.000324792141,0,1395,1883,1100,1617,6,-6,21.6700001,0,0.0199999996,0.540000021,0,0,1,0.00445477245,0.00360624446
4.897035,1783679971.197520,84,-0.815636277,-0.205256224,24.5033302,0,0.0282233655,0.00973392092,0.995775759,-0.699653864,-3.10509777,-2.91621375,148.38501,991.91272,0,0.0860000029,0.56006068,1.62342751,0.143086508,2.7674377,0.416974187,-1.14401019,0.996472478,0.88499999,-1.60000002,-1.60000002,-3,-0.200000003,0,0,3.0999999,3,2.5,-0.0540209636,0.0179851204,-0.00612901431,0.00150321925,0.0121761458,0,0,-0.00160291675,-0.0121331066,-0.00961750001,-0.0724610612,-0.00961750001,0,-0,-0.0727986395,0.000337581441,0,1428,1882,1100,1614,6,-6,21.6700001,0,0.0199999996,0.540000021,0,0,1,0.00169705611,0.00169705611
4.959799,1783679971.260284,85,-0.758849442,-0.195294142,24.5139408,0,0.00479405001,0.0815119594,0.910251141,-0.154691964,2.42496157,-4.83889246,148.435013,991.972229,0,0.561000049,5.1171236,0.300556153,0.18148458,2.78335428,4.9356389,-2.4827981,0.995976269,1.00999999,-1.60000002,-1.60000002,-3,-0.200000003,0,0,3.0999999,3,2.5,-0.0470422208,-0.0565434545,0.0410337783,0.00174876139,0.00903302059,0,0,-0.00179627398,-0.00909012929,-0.0107776439,-0.054192286,-0.0107776439,0,0,-0.0545407757,0.00034848816,0,1445,1871,1100,1617,6,-6,21.6700001,0,0.0199999996,0.540000021,0,0,1,0.00254558446,0.00212132046
5.052897,1783679971.353381,86,-0.808445692,-0.162369251,24.5079517,0,0.0638888404,-0.024491787,1.03139806,-0.446018189,0.947548509,-3.81796932,148.485001,991.972229,0,0.148000002,-1.36030161,3.54359984,0.157838464,2.80331922,-1.51814008,0.740280628,0.99598819,1.00699997,-1.60000002,-1.60000002,-3,-0.200000003,0,0,3.0999999,3,2.5,0.0198637415,0.0690178201,-0.0636880994,-3.3825163e-06,0.00951845758,0,0,2.33853043e-05,-0.0094489567,0.000140311822,-0.0563360192,0.000140311822,0,-0,-0.0566937402,0.000357721205,-0,1418,1882,1100,1616,6,-6,21.6700001,0,0.0199999996,0.540000021,0,0,1,0.00148492423,0.00106066023
5.084948,1783679971.385432,87,-0.754654586,-0.160433531,24.5017738,0,0.074549228,0.0365298577,0.981795073,-0.876348555,1.46652961,-0.196012497,148.535004,991.972229,0,0.579000056,2.13083339,4.33923435,0.196382508,2.80094337,1.93445086,1.53829098,0.995266557,1.18900001,-1.60000002,-1.60000002,-3,-0.200000003,0,0,3.0999999,3,2.5,0.064954035,-0.0674493462,0.0933403596,0.000869072799,0.00877296552,0,0,-0.000791842467,-0.00885316264,-0.00475105457,-0.0527516417,-0.00475105457,0,-0,-0.053118974,0.00036733158,0,1452,1883,1100,1617,6,-6,21.6700001,0,0.0199999996,0.540000021,0,0,1,0.000212132014,0.000636396057
5.130937,1783679971.431421,88,-0.756612241,-0.148634434,24.5073147,0,0.09034504,0.0125150941,0.928867042,0.463104397,-0.271808684,2.74462986,148.585007,991.972229,0,0.292000026,0.771928251,5.55482388,0.201292172,2.80900788,0.570636094,2.74581599,0.99598819,1.00699997,-1.60000002,-1.60000002,-3,-0.200000003,0,0,3.0999999,3,2.5,0.0707346573,0.00535067637,-0.00610112771,0.00219528633,0.00678207725,0,0,-0.00212405645,-0.00677668909,-0.0127443392,-0.0402850397,-0.0127443392,0,-0,-0.0406601354,0.000375097588,-0,1449,1870,1100,1614,6,-6,21.6700001,0,0.0199999996,0.540000021,0,0,1,-0.000424264028,0.000424264028
5.193377,1783679971.493862,89,-0.767786145,-0.13010931,24.5286827,0,0.0384077802,-0.0165995508,1.02482522,0.827404678,-2.48984098,-2.60881162,148.63501,991.972229,0,0.251000017,-0.927964151,2.14601088,0.195428059,2.84041595,-1.12339222,-0.694405079,0.997311234,0.674000025,-1.60000002,-1.60000002,-3,-0.200000003,0,0,3.0999999,3,2.5,0.00325373979,0.0300381705,-0.0513579398,0.00297617214,0.00557199121,0,0,-0.00295940042,-0.00552631728,-0.0177564025,-0.0327765346,-0.0177564025,0,0,-0.0331579037,0.000381369668,0,1421,1874,1100,1616,6,-6,21.6700001,0,0.0199999996,0.540000021,0,0,1,0.00190918823,0.000212132174
5.256508,1783679971.556992,90,-0.772703767,-0.127109289,24.5131512,0,0.0136073604,-0.0282644723,1.04561543,-1.02041447,1.81983113,-1.16268754,148.685013,991.928589,0,0.509000003,-1.54840934,0.745317698,0.194495931,2.8500092,-1.74290526,-2.10469151,0.995980263,1.00899994,-1.60000002,-1.60000002,-3,-0.200000003,0,0,3.0999999,3,2.5,-0.00929632783,0.0478285551,0.0167553015,0.00331284199,0.00618041353,0,0,-0.00332222204,-0.00613215473,-0.0199333318,-0.0364058986,-0.0199333318,0,-0,-0.0367929265,0.000387026579,-0,1413,1884,1100,1614,6,-6,21.6700001,0,0.0199999996,0.540000021,0,0,1,0.00275771623,0.00106066
5.319229,1783679971.619714,91,-0.77424562,-0.121400833,24.5123081,0,0.0470195785,-0.003017582,1.0304184,-0.715297759,2.62939978,-2.92540336,148.735001,991.928589,0,0.122000009,-0.167790309,2.61267114,0.187374339,2.84820318,-0.355164647,-0.235532045,0.995984197,1.00800002,-1.60000002,-1.60000002,-3,-0.200000003,0,0,3.0999999,3,2.5,-0.0268129483,0.0185409375,0.0179660134,0.00330345775,0.00678022951,0,0,-0.0033304852,-0.00676154019,-0.0199829116,-0.0401756912,-0.0199829116,0,0,-0.0405692421,0.000393549883,0,1424,1883,1100,1617,6,-6,21.6700001,0,0.0199999996,0.540000021,0,0,1,0.00445477245,0.00148492411
5.381841,1783679971.682326,92,-0.785126567,-0.135193348,24.4712868,0,0.00322549511,-0.000707920641,1.03008616,-0.50043416,2.33174658,-6.26595592,148.785004,991.928589,0,0.21800001,-0.0393761806,0.179408893,0.175930902,2.84415531,-0.215307087,-2.66474652,0.99598819,1.00699997,-1.60000002,-1.60000002,-3,-0.200000003,0,0,3.0999999,3,2.5,0.0015204493,0.0120064048,0.015480822,0.00300370553,0.00743787456,0,0,-0.00296989037,-0.00741473027,-0.0178193413,-0.0440874957,-0.0178193413,0,-0,-0.0444883816,0.000400887657,-0,1434,1875,1100,1616,6,-6,21.6700001,0,0.0199999996,0.540000021,0,0,1,0.00487903692,0.000636395765
5.444652,1783679971.745137,93,-0.843785882,-0.183902025,24.3331509,0,-0.0187084489,-0.041336,1.01640844,-0.307954311,4.24487448,-5.84353065,148.835007,991.928589,0,0.286000013,-2.32886076,-1.05362082,0.126012653,2.79983306,-2.45487332,-3.85345387,0.996087432,0.982000053,-1.60000002,-1.60000002,-3,-0.200000003,0,0,3.0999999,3,2.5,-0.0232848097,0.050898999,0.119760163,0.00164615212,0.00756940711,0,0,-0.00166901783,-0.00751942443,-0.0100141075,-0.0447081327,-0.0100141075,0,-0,-0.0451165475,0.000408413034,0,1396,1876,1100,1615,6,-6,21.6700001,0,0.0199999996,0.540000021,0,0,1,0.0120915258,-0.00954594184
5.475764,1783679971.776249,94,-1.00145495,-0.175174236,24.1037464,0,-0.0253178813,-0.0425457396,1.09458876,-0.0308502018,-1.85963321,-15.1199894,148.88501,991.928589,0,0.0730000064,-2.22591782,-1.32401788,-0.0333003439,2.80848813,-2.19261742,-4.13250589,0.996369243,0.911000013,-1.60000002,-1.60000002,-3,-0.200000003,0,0,3.0999999,3,2.5,-0.118959635,0.127645656,-0.0400954112,0.00440615229,0.0110670943,0,0,-0.00459902128,-0.0108284028,-0.0275941268,-0.0645526946,-0.0275941268,0,-0,-0.0649704188,0.000417726173,-0,1425,1870,1100,1614,6,-6,21.6700001,0,0.0199999996,0.540000021,0,0,1,0.0195161477,-0.0237587877
5.537410,1783679971.837895,95,-1.25167036,-0.135201931,23.7877445,0,0.0319489315,-0.050600037,1.03652966,0.54179585,-9.45177269,-18.8362122,148.935013,991.896851,0,0.518000007,-2.79477668,1.7633692,-0.281373411,2.83777523,-2.51340318,-1.07440603,0.995980263,1.00899994,-1.60000002,-1.60000002,-3,-0.200000003,0,0,3.0999999,3,2.5,-0.190639257,0.22590819,0.0268665664,0.00752265844,0.0131347245,0,0,-0.00771501334,-0.0129067833,-0.046290081,-0.077010721,-0.046290081,0,-0,-0.0774407014,0.000429981854,0,1467,1867,1100,1607,6,-6,21.6700001,0,0.0199999996,0.540000021,0,0,1,0.0307591408,-0.0362745747
5.599546,1783679971.900031,96,-1.50189996,0.123708487,23.0563316,0,0.252657771,-0.00805330649,0.923451006,-0.928625226,-0.18582058,-24.647686,148.985001,991.896851,0,0.140000001,-0.499657065,15.3011866,-0.54187578,3.04314065,0.042218715,12.2580462,0.995984197,1.00800002,-1.60000002,-1.60000002,-3,-0.200000003,0,0,3.0999999,3,2.5,0.0922004506,0.222438142,0.111970268,0.0137241939,0.0177156441,0,0,-0.0136312563,-0.0174914263,-0.0817875415,-0.104502223,-0.0817875415,0,0,-0.104948558,0.000446337392,-0,1515,1880,1100,1608,6,-6,21.6700001,0,0.0199999996,0.540000021,0,0,1,0.0417900085,-0.0570635125
5.662150,1783679971.962635,97,-1.50819612,0.146097422,22.4342842,0,0.0377161615,-0.04437479,0.93702352,-0.91750443,1.93502641,-14.5216026,149.035004,991.896851,0,0.573000014,-2.71134067,2.30239224,-0.538059771,3.11848927,-2.17328095,-0.816097021,0.995425045,1.14900005,-1.60000002,-1.60000002,-3,-0.200000003,0,0,3.0999999,3,2.5,-0.125523224,-0.0147998873,-0.093903549,0.018312024,0.00749093341,0,0,-0.0184562504,-0.00750793843,-0.110737503,-0.0445869677,-0.110737503,0,-0,-0.0450476296,0.000460662181,0,1429,1892,1100,1606,6,-6,21.6700001,0,0.0199999996,0.540000021,0,0,1,0.0528208688,-0.0842164084
5.724755,1783679972.025240,98,-1.44179261,0.134759665,21.5761223,0,-0.00389386714,-0.0864144117,1.09181929,0.515535891,-9.33213997,-22.4798279,149.085007,991.896851,0,0.262000024,-4.52536535,-0.203701943,-0.465310693,3.11673903,-4.06005478,-3.32044101,0.99598819,1.00699997,-1.60000002,-1.60000002,-3,-0.200000003,0,0,3.0999999,3,2.5,-0.104509883,0.0101496428,0.0743574798,0.0189847071,-0.00514297048,0,0,-0.0190899484,0.00515319128,-0.11453969,0.0313815363,-0.11453969,0,0,0.0309191477,0.000462388649,0,1441,1878,1100,1608,6,-6,21.6700001,0,0.0199999996,0.540000021,0,0,1,0.0557907186,-0.0859134644
5.787425,1783679972.087909,99,-1.36553884,0.194386959,20.3397655,0,0.179006487,-0.0185429081,1.01406455,-2.13535571,-3.60436916,-24.9073353,149.13501,991.896851,0,0.557000041,-1.04757822,10.0092945,-0.401915699,3.1264863,-0.645662546,6.88280821,0.994688392,1.33500004,-1.60000002,-1.60000002,-3,-0.200000003,0,0,3.0999999,3,2.5,0.0805740505,-0.0256678089,-0.122851983,0.0268745366,-0.0219819006,0,0,-0.0268460922,0.021926498,-0.161076546,0.132008985,-0.161076546,0,-0,0.131558985,0.000449995627,0,1455,1900,1100,1599,6,-6,21.6700001,0,0.0199999996,0.540000021,0,0,1,0.0861256123,-0.12133953
5.819060,1783679972.119544,100,-1.23526955,0.266996384,18.8175583,0,-0.0147381322,-0.029146865,0.877385318,-2.6702323,1.62981844,-38.0952225,149.185013,991.928589,0,0.440000027,-1.90267432,-0.961821377,-0.268513441,3.25257874,-1.63416088,-4.21440029,0.995984197,1.00800002,-1.60000002,-1.60000002,-3,-0.200000003,0,0,3.0999999,3,2.5,-0.0244628377,-0.0460427701,0.182552636,0.0328272097,-0.0338774025,0,0,-0.0328518674,0.0338309929,-0.197111204,0.203408346,-0.197111204,0,-0,0.202985957,0.000422383659,0,1441,1906,1100,1584,6,-6,21.6700001,0,0.0199999996,0.540000021,0,0,1,0.0901561156,-0.114339165
5.880441,1783679972.180925,101,-1.17133927,0.17103076,16.3918781,0,-0.037892729,0.000729035586,1.11074078,-3.4051404,2.78992844,-49.7845421,149.235001,991.928589,0,0.157000005,0.0376061238,-1.95387745,-0.212150604,3.16026688,0.249756724,-5.11414433,0.995976269,1.00999999,-1.60000002,-1.60000002,-3,-0.200000003,0,0,3.0999999,3,2.5,-0.10022752,0.0185300298,-0.0483986437,0.0342154466,-0.0435576439,0,0,-0.0343166776,0.0435763597,-0.205900073,0.261840135,-0.205900073,0,0,0.261458158,0.000381970196,-0,1389,1916,1149,1561,6,-6,21.6700001,0,0.0199999996,0.540000021,0,0,1,0.117945418,-0.151038006
