pc_elapsed_s,pc_unix_s,frame_index,roll_deg,pitch_deg,yaw_deg,altitude_m,accel_x_g,accel_y_g,accel_z_g,gyro_x_dps,gyro_y_dps,gyro_z_dps,fc_time_s,imu_irq_hz,imu_poll_hz,imu_age_ms,roll_acc_deg,pitch_acc_deg,roll_gyro_deg,pitch_gyro_deg,roll_residual_deg,pitch_residual_deg,attitude_cf_alpha,attitude_dt_ms,coax_roll_rate_kd,coax_pitch_rate_kd,coax_yaw_angle_kp,coax_yaw_rate_kd,coax_vel_x_kd,coax_vel_y_kd,coax_vel_z_kd,coax_accel_xy_limit_m_s2,coax_accel_z_limit_m_s2,nav_acc_x_m_s2,nav_acc_y_m_s2,nav_acc_z_m_s2,vel_est_x_m_s,vel_est_y_m_s,vel_ref_x_m_s,vel_ref_y_m_s,vel_err_x_m_s,vel_err_y_m_s,vel_pid_out_x_m_s2,vel_pid_out_y_m_s2,vel_pid_p_x_m_s2,vel_pid_i_x_m_s2,vel_pid_d_x_m_s2,vel_pid_p_y_m_s2,vel_pid_i_y_m_s2,vel_pid_d_y_m_s2,servo_alpha_us,servo_beta_us,motor_upper_us,motor_lower_us,vel_loop_x_kp,vel_loop_y_kp,vel_loop_output_limit_m_s2,vel_loop_x_ki,vel_loop_y_ki,vel_loop_i_limit_m_s2,vel_loop_x_kd,vel_loop_y_kd,vel_loop_enable,flow_raw_vx_m_s,flow_raw_vy_m_s
0.168148,1783675214.110215,1,-2.82763219,-3.12092066,-11.7066402,0,0.0520982333,0.00243943324,0.994430304,0.101885468,0.175347343,0.0447043553,101.538002,992.292786,0,0.811000049,0.140551776,2.99897695,0.125037178,3.02840042,0.0155145973,-0.0294234753,0.995984197,1.00800002,-2.41000009,-2.5999999,-3,-0.200000003,0,0,3.0999999,3,2.5,8.66711198e-05,0.000120906836,5.51033045e-05,8.73644908e-08,1.21874095e-07,0,0,0.0868671387,-0.029978944,1.11858153,0.729578257,1.02937567,0.0892058238,0,0.322273642,0.407304645,-0,1515,1951,1549,1216,11.8500004,10.75,21.6700001,0.319999993,0.469999999,0.540000021,0,0,1,0,0
0.246348,1783675214.188415,2,-2.8275497,-3.12224579,-11.7031631,0,0.0518880822,0.00283412682,0.994268715,0.0904782265,0.0934934691,0.0253704004,101.588005,992.186035,0,0.377000004,0.163319096,2.98738313,0.125024214,3.02712083,0.0382948816,-0.0397377014,0.995881081,1.03399992,-2.41000009,-2.5999999,-3,-0.200000003,0,0,3.0999999,3,2.5,7.06171995e-05,-2.42539882e-05,7.82775896e-05,7.30181782e-08,-2.50786218e-08,0,0,0.0868671387,-0.029978944,1.11858153,0.729578257,1.02937567,0.0892058238,0,0.322273642,0.407304645,-0,1515,1951,1549,1216,11.8500004,10.75,21.6700001,0.319999993,0.469999999,0.540000021,0,0,1,0,0
0.277284,1783675214.219351,3,-2.83147907,-3.11983871,-11.6982307,0,0.0518042445,0.00296059693,0.994603276,0.0834952667,0.2006547,0.090880692,101.638008,992.186035,0,0.0870000049,0.170549616,2.98156238,0.121044792,3.02956557,0.049504824,-0.0480031967,0.995805621,1.05299997,-2.41000009,-2.5999999,-3,-0.200000003,0,0,3.0999999,3,2.5,0,0,0,0,0,0,0,0.0868671387,-0.029978944,1.11858153,0.729578257,1.02937567,0.0892058238,0,0.322273642,0.407304645,-0,1515,1951,1549,1216,11.8500004,10.75,21.6700001,0.319999993,0.469999999,0.540000021,0,0,1,0,0
0.340734,1783675214.282800,4,-2.83070159,-3.12599277,-11.6942787,0,0.0508707911,0.00217347965,0.994522333,0.108507141,0.0934733599,0.0751589313,101.688004,992.186035,0,0.644000053,0.125216916,2.92817616,0.1220171,3.02359271,0.00319981575,-0.0954165459,0.99598819,1.00699997,-2.41000009,-2.5999999,-3,-0.200000003,0,0,3.0999999,3,2.5,2.05582382e-05,-9.70957481e-05,6.82067912e-05,2.07021458e-08,-9.77754198e-08,0,0,0.0868671387,-0.029978944,1.11858153,0.729578257,1.02937567,0.0892058238,0,0.322273642,0.407304645,-0,1515,1951,1549,1216,11.8500004,10.75,21.6700001,0.319999993,0.469999999,0.540000021,0,0,1,0,0
0.416105,1783675214.358172,5,-2.82822919,-3.13244915,-11.6900673,0,0.0510211773,0.00356093654,0.993916094,0.127799243,0.149077043,0.0862746835,101.738007,992.186035,0,0.220000014,0.205274627,2.93859386,0.124176711,3.01706886,0.0810979158,-0.0784749985,0.995984197,1.00800002,-2.41000009,-2.5999999,-3,-0.200000003,0,0,3.0999999,3,2.5,7.54559078e-05,5.56571795e-05,0.000147628787,7.60595569e-08,5.61024365e-08,0,0,0.0868671387,-0.029978944,1.11858153,0.729578257,1.02937567,0.0892058238,0,0.322273642,0.407304645,-0,1515,1951,1549,1216,11.8500004,10.75,21.6700001,0.319999993,0.469999999,0.540000021,0,0,1,0,0
0.448152,1783675214.390219,6,-2.82432556,-3.151263,-11.6857204,0,0.0504198447,0.0033286633,0.994295359,0.137040272,0.15953128,0.0608218163,101.788002,992.186035,0,0.855000019,0.19181186,2.90291595,0.12815091,2.99832225,0.0636609495,-0.0954062939,0.995992124,1.00599992,-2.41000009,-2.5999999,-3,-0.200000003,0,0,3.0999999,3,2.5,5.48493881e-05,-9.96038398e-06,2.79235846e-05,5.51784822e-08,-1.00201465e-08,0,0,0.0868671387,-0.029978944,1.11858153,0.729578257,1.02937567,0.0892058238,0,0.322273642,0.407304645,-0,1515,1951,1549,1216,11.8500004,10.75,21.6700001,0.319999993,0.469999999,0.540000021,0,0,1,0,0
0.511344,1783675214.453410,7,-2.82310152,-3.15084481,-11.6809368,0,0.050881464,0.00235762773,0.994694769,0.122197509,0.105288237,0.0913282782,101.838005,992.142578,0,0.437000006,0.135802329,2.92828131,0.129605293,2.99864054,0.00619703531,-0.07035923,0.995984197,1.00800002,-2.41000009,-2.5999999,-3,-0.200000003,0,0,3.0999999,3,2.5,-0.000101433994,-2.28983554e-05,8.0165868e-05,-1.02245465e-07,-2.3081542e-08,0,0,0.0868671387,-0.029978944,1.11858153,0.729578257,1.02937567,0.0892058238,0,0.322273642,0.407304645,-0,1515,1951,1549,1216,11.8500004,10.75,21.6700001,0.319999993,0.469999999,0.540000021,0,0,1,0,0
0.572750,1783675214.514817,8,-2.82526851,-3.15162444,-11.6767178,0,0.0513948761,0.00310713146,0.994006515,0.121418998,0.169139966,0.115210861,101.888008,992.142578,0,0.0920000076,0.179098353,2.95981503,0.127246007,2.99773717,0.0518523455,-0.0379221439,0.995813549,1.051,-2.41000009,-2.5999999,-3,-0.200000003,0,0,3.0999999,3,2.5,0,0,0,0,0,0,0,0.0868671387,-0.029978944,1.11858153,0.729578257,1.02937567,0.0892058238,0,0.322273642,0.407304645,-0,1515,1951,1549,1216,11.8500004,10.75,21.6700001,0.319999993,0.469999999,0.540000021,0,0,1,0,0
0.635497,1783675214.577564,9,-2.82348514,-3.15002751,-11.6730213,0,0.0519674011,0.00330189569,0.994367599,0.0630778223,0.123384349,0.0729505643,101.938004,992.142578,0,0.661000013,0.190255597,2.99164009,0.12900047,2.99920559,0.0612551272,-0.00756549835,0.995984197,1.00800002,-2.41000009,-2.5999999,-3,-0.200000003,0,0,3.0999999,3,2.5,-3.31521042e-05,-5.34519568e-05,6.74629264e-05,-3.34173222e-08,-5.3879571e-08,0,0,0.0868671387,-0.029978944,1.11858153,0.729578257,1.02937567,0.0892058238,0,0.322273642,0.407304645,-0,1515,1951,1549,1216,11.8500004,10.75,21.6700001,0.319999993,0.469999999,0.540000021,0,0,1,0,0
0.713773,1783675214.655840,10,-2.82250905,-3.14357495,-11.6689091,0,0.0520386957,0.00285893306,0.99413085,0.103870302,0.11874406,0.111993596,101.988007,992.142578,0,0.251000017,0.164771423,2.99645305,0.130083233,3.00566483,0.0346881896,-0.00921177864,0.995984197,1.00800002,-2.41000009,-2.5999999,-3,-0.200000003,0,0,3.0999999,3,2.5,1.56784063e-05,-6.2046427e-05,0.000119991309,1.58038329e-08,-6.25427958e-08,0,0,0.0868671387,-0.029978944,1.11858153,0.729578257,1.02937567,0.0892058238,0,0.322273642,0.407304645,-0,1515,1951,1549,1216,11.8500004,10.75,21.6700001,0.319999993,0.469999999,0.540000021,0,0,1,0,0
0.744312,1783675214.686379,11,-2.82169032,-3.14215541,-11.6653194,0,0.0514982343,0.00228527328,0.995045781,0.0992987603,0.122578725,0.0894960165,102.038002,992.142578,0,0.87500006,0.131588206,2.96267128,0.131038979,3.00722623,0.000549226999,-0.0445549488,0.995984197,1.00800002,-2.41000009,-2.5999999,-3,-0.200000003,0,0,3.0999999,3,2.5,0,0,0,0,0,0,0,0.0868671387,-0.029978944,1.11858153,0.729578257,1.02937567,0.0892058238,0,0.322273642,0.407304645,-0,1515,1951,1549,1216,11.8500004,10.75,21.6700001,0.319999993,0.469999999,0.540000021,0,0,1,0,0
0.821877,1783675214.763944,12,-2.82142282,-3.14281845,-11.6604137,0,0.0515650027,0.00253002369,0.994743764,0.121447384,0.219786838,0.133818075,102.088005,992.09906,0,0.470000029,0.145725325,2.96740294,0.131250694,3.00654173,0.0144746304,-0.0391387939,0.995984197,1.00800002,-2.41000009,-2.5999999,-3,-0.200000003,0,0,3.0999999,3,2.5,9.56904914e-05,-0.000124690428,-0.000128116619,9.6456013e-08,-1.25687947e-07,0,0,0.0868671387,-0.029978944,1.11858153,0.729578257,1.02937567,0.0892058238,0,0.322273642,0.407304645,-0,1515,1951,1549,1216,11.8500004,10.75,21.6700001,0.319999993,0.469999999,0.540000021,0,0,1,0,0
0.853525,1783675214.795591,13,-2.82075047,-3.14341545,-11.6558571,0,0.0513479784,0.00351609732,0.994930506,0.105505407,0.201555848,0.0915131494,102.138008,992.09906,0,0.0990000069,0.202483192,2.9543736,0.13169688,3.00599456,0.0707863122,-0.0516209602,0.995984197,1.00800002,-2.41000009,-2.5999999,-3,-0.200000003,0,0,3.0999999,3,2.5,-0.000184693345,-0.000191237486,-1.16157535e-05,-1.86170894e-07,-1.92767388e-07,0,0,0.0868671387,-0.029978944,1.11858153,0.729578257,1.02937567,0.0892058238,0,0.322273642,0.407304645,-0,1515,1951,1549,1216,11.8500004,10.75,21.6700001,0.319999993,0.469999999,0.540000021,0,0,1,0,0
0.915258,1783675214.857325,14,-2.82288098,-3.14142609,-11.6511612,0,0.0529080816,0.00195371336,0.99470377,0.118969522,0.175050572,0.0897858143,102.188004,992.09906,0,0.716000021,0.112535402,3.04467535,0.129920423,3.0076282,-0.0173850209,0.0370471478,0.99598819,1.00699997,-2.41000009,-2.5999999,-3,-0.200000003,0,0,3.0999999,3,2.5,-0.000183073294,-8.07065517e-05,-3.62205537e-05,-1.84354803e-07,-8.12714944e-08,0,0,0.0868671387,-0.029978944,1.11858153,0.729578257,1.02937567,0.0892058238,0,0.322273642,0.407304645,-0,1515,1951,1549,1216,11.8500004,10.75,21.6700001,0.319999993,0.469999999,0.540000021,0,0,1,0,0
0.978736,1783675214.920803,15,-2.82586622,-3.13987041,-11.6473579,0,0.052107729,0.00232323958,0.995180368,0.0800602436,0.207591787,0.071228005,102.238007,992.09906,0,0.299000025,0.133756235,2.99726677,0.126837492,3.00938129,0.00691874325,-0.0121145248,0.995984197,1.00800002,-2.41000009,-2.5999999,-3,-0.200000003,0,0,3.0999999,3,2.5,0.000176414265,0.000108253174,-1.55639646e-05,1.77825584e-07,1.09119199e-07,0,0,0.0868671387,-0.029978944,1.11858153,0.729578257,1.02937567,0.0892058238,0,0.322273642,0.407304645,-0,1515,1951,1549,1216,11.8500004,10.75,21.6700001,0.319999993,0.469999999,0.540000021,0,0,1,0,0
1.040888,1783675214.982955,16,-2.82823944,-3.1413331,-11.6433525,0,0.0515918434,0.0028228187,0.994314671,0.132881373,0.156836987,0.0909296945,102.288002,992.09906,0,0.0930000022,0.162659943,2.97022128,0.124341421,3.00801849,0.0383185223,-0.0377972126,0.99606353,0.987999976,-2.41000009,-2.5999999,-3,-0.200000003,0,0,3.0999999,3,2.5,0,0,0,0,0,0,0,0.0868671387,-0.029978944,1.11858153,0.729578257,1.02937567,0.0892058238,0,0.322273642,0.407304645,-0,1515,1951,1549,1216,11.8500004,10.75,21.6700001,0.319999993,0.469999999,0.540000021,0,0,1,0,0
1.103351,1783675215.045418,17,-2.82864952,-3.14322019,-11.6392326,0,0.0514197908,0.0027590408,0.994873703,0.0928072184,0.126119718,0.0967555642,102.338005,992.241394,0,0.537,0.158895537,2.95867372,0.123941973,3.00617313,0.0349535644,-0.0474994183,0.99598819,1.00699997,-2.41000009,-2.5999999,-3,-0.200000003,0,0,3.0999999,3,2.5,6.69550936e-05,-5.51160429e-06,5.08117701e-05,6.74237768e-08,-5.55018564e-09,0,0,0.0868671387,-0.029978944,1.11858153,0.729578257,1.02937567,0.0892058238,0,0.322273642,0.407304645,-0,1515,1951,1549,1216,11.8500004,10.75,21.6700001,0.319999993,0.469999999,0.540000021,0,0,1,0,0
1.165118,1783675215.107185,18,-2.8296206,-3.14510798,-11.6348648,0,0.0508033261,0.00236273231,0.995265126,0.163994372,0.172949538,0.0883231983,102.388008,992.241394,0,0.131000012,0.136018366,2.92211986,0.123058945,3.00442529,0.0129594207,-0.0823054314,0.995984197,1.00800002,-2.41000009,-2.5999999,-3,-0.200000003,0,0,3.0999999,3,2.5,-8.30197387e-05,0.000153016343,7.55310066e-06,-8.36838936e-08,1.54240468e-07,0,0,0.0868671387,-0.029978944,1.11858153,0.729578257,1.02937567,0.0892058238,0,0.322273642,0.407304645,-0,1515,1951,1549,1216,11.8500004,10.75,21.6700001,0.319999993,0.469999999,0.540000021,0,0,1,0,0
1.196152,1783675215.138218,19,-2.83047462,-3.15105534,-11.6303082,0,0.0505136922,0.00294098211,0.994765043,0.0989369825,0.122390866,0.0906364694,102.438004,992.241394,0,0.753000021,0.169392139,2.90694261,0.122066967,2.99851513,0.0473251715,-0.0915725231,0.995984197,1.00800002,-2.41000009,-2.5999999,-3,-0.200000003,0,0,3.0999999,3,2.5,-5.2524807e-05,9.56557342e-05,-2.24876421e-05,-5.29450048e-08,9.64209761e-08,0,0,0.0868671387,-0.029978944,1.11858153,0.729578257,1.02937567,0.0892058238,0,0.322273642,0.407304645,-0,1515,1951,1549,1216,11.8500004,10.75,21.6700001,0.319999993,0.469999999,0.540000021,0,0,1,0,0
1.258375,1783675215.200442,20,-2.83329058,-3.14762259,-11.6261406,0,0.0530874394,0.00197603554,0.994533062,0.124454886,0.12301816,0.0868829265,102.488007,992.241394,0,0.356000006,0.113840714,3.05550051,0.119463541,3.00136304,-0.00562282652,0.0541374683,0.99598819,1.00699997,-2.41000009,-2.5999999,-3,-0.200000003,0,0,3.0999999,3,2.5,-3.58915349e-05,-2.45329375e-05,5.90515156e-05,-3.61427759e-08,-2.47046668e-08,0,0,0.0868671387,-0.029978944,1.11858153,0.729578257,1.02937567,0.0892058238,0,0.322273642,0.407304645,-0,1515,1951,1549,1216,11.8500004,10.75,21.6700001,0.319999993,0.469999999,0.540000021,0,0,1,0,0
1.319909,1783675215.261975,21,-2.83452392,-3.14795327,-11.6213379,0,0.0514937267,0.00246042549,0.994560003,0.0867760926,0.147874594,0.0911396295,102.538002,992.241394,0,0.088000007,0.141742781,2.9638555,0.118115798,3.00139546,0.0236269832,-0.037539959,0.996111214,0.975999951,-2.41000009,-2.5999999,-3,-0.200000003,0,0,3.0999999,3,2.5,0,0,0,0,0,0,0,0.0868671387,-0.029978944,1.11858153,0.729578257,1.02937567,0.0892058238,0,0.322273642,0.407304645,-0,1515,1951,1549,1216,11.8500004,10.75,21.6700001,0.319999993,0.469999999,0.540000021,0,0,1,0,0
1.383459,1783675215.325526,22,-2.8317368,-3.14651513,-11.6177597,0,0.0507799461,0.00357981981,0.994589567,0.113659285,0.167449698,0.0928371847,102.588005,992.241394,0,0.582000017,0.206223443,2.92274714,0.120642409,3.00301838,0.0855810344,-0.080271244,0.995881081,1.03399992,-2.41000009,-2.5999999,-3,-0.200000003,0,0,3.0999999,3,2.5,1.33520371e-05,-0.000157302624,-5.60760509e-06,1.38060061e-08,-1.62650906e-07,0,0,0.0868671387,-0.029978944,1.11858153,0.729578257,1.02937567,0.0892058238,0,0.322273642,0.407304645,-0,1515,1951,1549,1216,11.8500004,10.75,21.6700001,0.319999993,0.469999999,0.540000021,0,0,1,0,0
1.447316,1783675215.389382,23,-2.8302145,-3.14913487,-11.6134357,0,0.0513245538,0.00308033847,0.994568884,0.111293986,0.190203935,0.120730564,102.638008,992.241394,0,0.18900001,0.177453592,2.95410395,0.122295946,3.0002532,0.0551576465,-0.0461492538,0.99598819,1.00699997,-2.41000009,-2.5999999,-3,-0.200000003,0,0,3.0999999,3,2.5,-7.81202325e-05,-9.1670423e-05,0.000173320776,-7.86670711e-08,-9.23121135e-08,0,0,0.0868671387,-0.029978944,1.11858153,0.729578257,1.02937567,0.0892058238,0,0.322273642,0.407304645,-0,1515,1951,1549,1216,11.8500004,10.75,21.6700001,0.319999993,0.469999999,0.540000021,0,0,1,0,0
1.509396,1783675215.451463,24,-2.82718253,-3.15334082,-11.6085987,0,0.0510210954,0.00304836268,0.994353294,0.0974343717,0.206283346,0.109543093,102.688004,992.241394,0,0.833000064,0.175649613,2.93730426,0.125347197,2.99609804,0.0503024161,-0.0587937832,0.99598819,1.00699997,-2.41000009,-2.5999999,-3,-0.200000003,0,0,3.0999999,3,2.5,-5.35494109e-05,-4.07915941e-05,-9.1552738e-07,-5.39242571e-08,-4.10771364e-08,0,0,0.0868671387,-0.029978944,1.11858153,0.729578257,1.02937567,0.0892058238,0,0.322273642,0.407304645,-0,1515,1951,1549,1216,11.8500004,10.75,21.6700001,0.319999993,0.469999999,0.540000021,0,0,1,0,0
1.540425,1783675215.482492,25,-2.82738733,-3.15051651,-11.6037025,0,0.0511121154,0.00227963715,0.994216263,0.0959599689,0.182047933,0.100165084,102.738007,992.241394,0,0.414000034,0.131373197,2.9429462,0.125320062,2.9989109,0.0060531348,-0.0559647083,0.99598819,1.00699997,-2.41000009,-2.5999999,-3,-0.200000003,0,0,3.0999999,3,2.5,-7.08746957e-05,-4.50671469e-05,0.000120563513,-7.13708204e-08,-4.53826168e-08,0,0,0.0868671387,-0.029978944,1.11858153,0.729578257,1.02937567,0.0892058238,0,0.322273642,0.407304645,-0,1515,1951,1549,1216,11.8500004,10.75,21.6700001,0.319999993,0.469999999,0.540000021,0,0,1,0,0
1.603441,1783675215.545508,26,-2.83069324,-3.14914727,-11.5993004,0,0.0505448096,0.00227061519,0.994565427,0.127688497,0.197932392,0.0456795841,102.788002,992.241394,0,0.0950000063,0.130807325,2.90931821,0.122002944,3.00042319,0.00880438089,-0.0911049843,0.995964289,1.01300001,-2.41000009,-2.5999999,-3,-0.200000003,0,0,3.0999999,3,2.5,0,0,0,0,0,0,0,0.0868671387,-0.029978944,1.11858153,0.729578257,1.02937567,0.0892058238,0,0.322273642,0.407304645,-0,1515,1951,1549,1216,11.8500004,10.75,21.6700001,0.319999993,0.469999999,0.540000021,0,0,1,0,0
1.665673,1783675215.607740,27,-2.83147907,-3.14790821,-11.594923,0,0.0508551933,0.00310283457,0.995584786,0.107869998,0.108393908,0.109985925,102.838005,992.229553,0,0.655000031,0.178567171,2.92415428,0.121021777,3.00160527,0.0575453937,-0.0774509907,0.99598819,1.00699997,-2.41000009,-2.5999999,-3,-0.200000003,0,0,3.0999999,3,2.5,-0.000201158531,-8.92040189e-05,0.000184135439,-2.02566639e-07,-8.98284469e-08,0,0,0.0868671387,-0.029978944,1.11858153,0.729578257,1.02937567,0.0892058238,0,0.322273642,0.407304645,-0,1515,1951,1549,1216,11.8500004,10.75,21.6700001,0.319999993,0.469999999,0.540000021,0,0,1,0,0
1.728222,1783675215.670289,28,-2.83248305,-3.14964604,-11.5903225,0,0.0511754863,0.00247977558,0.994201243,0.0897575468,0.14721939,0.0938042253,102.888008,992.229553,0,0.262000024,0.14290908,2.94663167,0.120157227,2.99977016,0.0227518529,-0.0531384945,0.995984197,1.00800002,-2.41000009,-2.5999999,-3,-0.200000003,0,0,3.0999999,3,2.5,6.59108191e-05,-0.00013059855,3.00979627e-05,6.64381048e-08,-1.31643333e-07,0,0,0.0868671387,-0.029978944,1.11858153,0.729578257,1.02937567,0.0892058238,0,0.322273642,0.407304645,-0,1515,1951,1549,1216,11.8500004,10.75,21.6700001,0.319999993,0.469999999,0.540000021,0,0,1,0,0
1.790973,1783675215.733040,29,-2.82925296,-3.15366745,-11.5858021,0,0.0523310117,0.003188645,0.994214892,0.105525851,0.176515222,0.117807858,102.938004,992.229553,0,0.881000042,0.183758348,3.01299691,0.123235874,2.99546504,0.0605224743,0.0175318718,0.99598819,1.00699997,-2.41000009,-2.5999999,-3,-0.200000003,0,0,3.0999999,3,2.5,0,0,0,0,0,0,0,0.0868671387,-0.029978944,1.11858153,0.729578257,1.02937567,0.0892058238,0,0.322273642,0.407304645,-0,1515,1951,1549,1216,11.8500004,10.75,21.6700001,0.319999993,0.469999999,0.540000021,0,0,1,0,0
1.852909,1783675215.794976,30,-2.8290143,-3.15109372,-11.5811939,0,0.0515163243,0.00355538446,0.995003879,0.10620711,0.177202314,0.0812578648,102.988007,992.229553,0,0.480000019,0.204730526,2.96382332,0.1233906,2.99824739,0.0813399255,-0.0344240665,0.995984197,1.00800002,-2.41000009,-2.5999999,-3,-0.200000003,0,0,3.0999999,3,2.5,-0.00016243459,1.73851856e-06,-4.06265281e-06,-1.63734072e-07,1.75242665e-09,0,0,0.0868671387,-0.029978944,1.11858153,0.729578257,1.02937567,0.0892058238,0,0.322273642,0.407304645,-0,1515,1951,1549,1216,11.8500004,10.75,21.6700001,0.319999993,0.469999999,0.540000021,0,0,1,0,0
1.915243,1783675215.857310,31,-2.82481766,-3.14813733,-11.5764999,0,0.0527319573,0.00267035817,0.994399548,0.0988107845,0.17411527,0.0949304104,103.038002,992.229553,0,0.0980000049,0.153861582,3.0354805,0.127809346,3.00092673,0.0260522366,0.0345537663,0.995980263,1.00899994,-2.41000009,-2.5999999,-3,-0.200000003,0,0,3.0999999,3,2.5,6.54923933e-05,-4.2002499e-05,-4.26292427e-05,6.60818245e-08,-4.23805204e-08,0,0,0.0868671387,-0.029978944,1.11858153,0.729578257,1.02937567,0.0892058238,0,0.322273642,0.407304645,-0,1515,1951,1549,1216,11.8500004,10.75,21.6700001,0.319999993,0.469999999,0.540000021,0,0,1,0,0
1.945845,1783675215.887911,32,-2.82869029,-3.14685297,-11.5724735,0,0.0508349314,0.00285838102,0.994494557,0.0856380239,0.140252367,0.105390184,103.088005,992.190002,0,0.715000033,0.164679363,2.92619228,0.123877637,3.0026567,0.0408017263,-0.0764644146,0.99598819,1.00699997,-2.41000009,-2.5999999,-3,-0.200000003,0,0,3.0999999,3,2.5,0.000144787438,-7.53947752e-05,4.52613858e-05,1.45800954e-07,-7.59225358e-08,0,0,0.0868671387,-0.029978944,1.11858153,0.729578257,1.02937567,0.0892058238,0,0.322273642,0.407304645,-0,1515,1951,1549,1216,11.8500004,10.75,21.6700001,0.319999993,0.469999999,0.540000021,0,0,1,0,0
2.009373,1783675215.951440,33,-2.82976103,-3.14130235,-11.5684338,0,0.0512986369,0.00256685889,0.994987845,0.126503214,0.182146206,0.0577356815,103.138008,992.190002,0,0.303000003,0.147810698,2.95137811,0.122870497,3.00812817,0.0249402002,-0.0567500591,0.99598819,1.00699997,-2.41000009,-2.5999999,-3,-0.200000003,0,0,3.0999999,3,2.5,-4.71067433e-05,-5.33598686e-05,-6.62612947e-05,-4.74364903e-08,-5.37333875e-08,0,0,0.0868671387,-0.029978944,1.11858153,0.729578257,1.02937567,0.0892058238,0,0.322273642,0.407304645,-0,1515,1951,1549,1216,11.8500004,10.75,21.6700001,0.319999993,0.469999999,0.540000021,0,0,1,0,0
2.070857,1783675216.012924,34,-2.83191967,-3.13607693,-11.5641537,0,0.0522851981,0.00237013539,0.994853079,0.101435937,0.114733443,0.0657021031,103.188004,992.190002,0,0.0960000008,0.136501059,3.00844359,0.120748684,3.01314473,0.0157523751,-0.00470113754,0.995992124,1.00599992,-2.41000009,-2.5999999,-3,-0.200000003,0,0,3.0999999,3,2.5,0,0,0,0,0,0,0,0.0868671387,-0.029978944,1.11858153,0.729578257,1.02937567,0.0892058238,0,0.322273642,0.407304645,-0,1515,1951,1549,1216,11.8500004,10.75,21.6700001,0.319999993,0.469999999,0.540000021,0,0,1,0,0
2.132443,1783675216.074509,35,-2.82910657,-3.13013053,-11.5594101,0,0.0516919829,0.00294739706,0.99518609,0.119797878,0.1640843,0.113976538,103.238007,992.190002,0,0.536000013,0.169689789,2.97337389,0.12343955,3.01925635,0.046250239,-0.0458824635,0.99598819,1.00699997,-2.41000009,-2.5999999,-3,-0.200000003,0,0,3.0999999,3,2.5,0.000100454097,-1.14639852e-05,-2.47764601e-05,1.01157276e-07,-1.15442331e-08,0,0,0.0868671387,-0.029978944,1.11858153,0.729578257,1.02937567,0.0892058238,0,0.322273642,0.407304645,-0,1515,1951,1549,1216,11.8500004,10.75,21.6700001,0.319999993,0.469999999,0.540000021,0,0,1,0,0
2.194118,1783675216.136184,36,-2.82944894,-3.1304884,-11.5551701,0,0.0521389283,0.00254450901,0.993922651,0.076529108,0.166077942,0.048198238,103.288002,992.190002,0,0.159000009,0.146680743,3.00284457,0.123188481,3.01877832,0.0234922618,-0.0159337521,0.99598819,1.00699997,-2.41000009,-2.5999999,-3,-0.200000003,0,0,3.0999999,3,2.5,0.000142303717,-0.000109715096,-8.62312372e-05,1.43299843e-07,-1.104831e-07,0,0,0.0868671387,-0.029978944,1.11858153,0.729578257,1.02937567,0.0892058238,0,0.322273642,0.407304645,-0,1515,1951,1549,1216,11.8500004,10.75,21.6700001,0.319999993,0.469999999,0.540000021,0,0,1,0,0
2.256588,1783675216.198654,37,-2.82659078,-3.1301806,-11.5513992,0,0.0507276021,0.00284522702,0.994623303,0.106373534,0.161915347,0.0336100273,103.338005,992.182068,0,0.779000044,0.163900286,2.91964769,0.125988826,3.01942253,0.0379114598,-0.0997748375,0.99598819,1.00699997,-2.41000009,-2.5999999,-3,-0.200000003,0,0,3.0999999,3,2.5,5.10764148e-05,0.000111671987,9.20677194e-05,5.14339504e-08,1.12453691e-07,0,0,0.0868671387,-0.029978944,1.11858153,0.729578257,1.02937567,0.0892058238,0,0.322273642,0.407304645,-0,1515,1951,1549,1216,11.8500004,10.75,21.6700001,0.319999993,0.469999999,0.540000021,0,0,1,0,0
2.333289,1783675216.275355,38,-2.82719731,-3.12444448,-11.5477314,0,0.0517869145,0.00265231216,0.99491936,0.118760124,0.0957312137,0.0527453311,103.388008,992.182068,0,0.368000031,0.152741969,2.97962427,0.125424564,3.02494049,0.0273174047,-0.0453162193,0.995980263,1.00899994,-2.41000009,-2.5999999,-3,-0.200000003,0,0,3.0999999,3,2.5,-3.19647806e-05,-3.05282338e-05,-3.39889557e-05,-3.2252462e-08,-3.08029868e-08,0,0,0.0868671387,-0.029978944,1.11858153,0.729578257,1.02937567,0.0892058238,0,0.322273642,0.407304645,-0,1515,1951,1549,1216,11.8500004,10.75,21.6700001,0.319999993,0.469999999,0.540000021,0,0,1,0,0
2.364012,1783675216.306079,39,-2.82892609,-3.13310194,-11.543663,0,0.0519984737,0.00263630832,0.996222436,0.113174118,0.0881044716,0.0554582924,103.438004,992.182068,0,0.0910000056,0.151621744,2.98786831,0.12369594,3.01621199,0.0279258043,-0.0283436775,0.996079385,0.984000027,-2.41000009,-2.5999999,-3,-0.200000003,0,0,3.0999999,3,2.5,0,0,0,0,0,0,0,0.0868671387,-0.029978944,1.11858153,0.729578257,1.02937567,0.0892058238,0,0.322273642,0.407304645,-0,1515,1951,1549,1216,11.8500004,10.75,21.6700001,0.319999993,0.469999999,0.540000021,0,0,1,0,0
2.426449,1783675216.368515,40,-2.82899547,-3.13492036,-11.5395508,0,0.050806988,0.00281243352,0.995251358,0.0740053058,0.16651094,0.0964911729,103.488007,992.182068,0,0.599000037,0.161908999,2.92236686,0.123582266,3.01465297,0.0383267328,-0.0922861099,0.995984197,1.00800002,-2.41000009,-2.5999999,-3,-0.200000003,0,0,3.0999999,3,2.5,-2.48765955e-05,-4.01592661e-05,9.74464419e-05,-2.50756074e-08,-4.04805398e-08,0,0,0.0868671387,-0.029978944,1.11858153,0.729578257,1.02937567,0.0892058238,0,0.322273642,0.407304645,-0,1515,1951,1549,1216,11.8500004,10.75,21.6700001,0.319999993,0.469999999,0.540000021,0,0,1,0,0
2.488616,1783675216.430682,41,-2.82796597,-3.13387346,-11.5354176,0,0.051684849,0.00257651671,0.995963097,0.0998252779,0.147596359,0.101820409,103.538002,992.182068,0,0.181000009,0.148221567,2.9706521,0.124671198,3.01550937,0.0235503688,-0.0448572636,0.99598819,1.00699997,-2.41000009,-2.5999999,-3,-0.200000003,0,0,3.0999999,3,2.5,-3.44717519e-05,1.50231654e-05,-3.97682197e-05,-3.47130538e-08,1.5128327e-08,0,0,0.0868671387,-0.029978944,1.11858153,0.729578257,1.02937567,0.0892058238,0,0.322273642,0.407304645,-0,1515,1951,1549,1216,11.8500004,10.75,21.6700001,0.319999993,0.469999999,0.540000021,0,0,1,0,0
2.549388,1783675216.491455,42,-2.82845521,-3.13318133,-11.5311871,0,0.0515645631,0.00209381618,0.995756686,0.0679025427,0.281383574,0.102419607,103.588005,992.261169,0,0.829000056,0.120477885,2.96436739,0.12429215,3.01623511,-0.00381426513,-0.0518677235,0.995881081,1.03399992,-2.41000009,-2.5999999,-3,-0.200000003,0,0,3.0999999,3,2.5,-0.000137743962,0.000123829319,-0.00020633699,-1.42427254e-07,1.28039517e-07,0,0,0.0868671387,-0.029978944,1.11858153,0.729578257,1.02937567,0.0892058238,0,0.322273642,0.407304645,-0,1515,1951,1549,1216,11.8500004,10.75,21.6700001,0.319999993,0.469999999,0.540000021,0,0,1,0,0
2.594911,1783675216.536978,43,-2.83128881,-3.14182067,-11.5271721,0,0.0501330122,0.00199449132,0.995081306,0.121810645,0.145272255,0.0662939623,103.638008,992.261169,0,0.408000022,0.114840642,2.88416386,0.121469311,3.00787783,-0.0066286698,-0.12371397,0.995992124,1.00599992,-2.41000009,-2.5999999,-3,-0.200000003,0,0,3.0999999,3,2.5,-0.000177805428,-2.21123555e-05,-0.000130634318,-1.78872256e-07,-2.22450289e-08,0,0,0.0868671387,-0.029978944,1.11858153,0.729578257,1.02937567,0.0892058238,0,0.322273642,0.407304645,-0,1515,1951,1549,1216,11.8500004,10.75,21.6700001,0.319999993,0.469999999,0.540000021,0,0,1,0,0
2.663225,1783675216.605292,44,-2.83054805,-3.14860892,-11.5228214,0,0.0496942848,0.00233712653,0.994515896,0.0973539427,0.151303098,0.0945985541,103.688004,992.261169,0,0.0940000042,0.134645641,2.86058664,0.122133672,3.00115442,0.0125119686,-0.14056778,0.996011972,1.00100005,-2.41000009,-2.5999999,-3,-0.200000003,0,0,3.0999999,3,2.5,0,0,0,0,0,0,0,0.0868671387,-0.029978944,1.11858153,0.729578257,1.02937567,0.0892058238,0,0.322273642,0.407304645,-0,1515,1951,1549,1216,11.8500004,10.75,21.6700001,0.319999993,0.469999999,0.540000021,0,0,1,0,0
2.703934,1783675216.646001,45,-2.83138013,-3.15487981,-11.5186825,0,0.0512467474,0.00284569361,0.994859159,0.109315656,0.143428549,0.0752884746,103.738007,992.261169,0,0.672000051,0.163888305,2.94877672,0.121179916,2.9945066,0.0427083895,-0.0457298756,0.995984197,1.00800002,-2.41000009,-2.5999999,-3,-0.200000003,0,0,3.0999999,3,2.5,8.31806683e-05,4.20771539e-06,-5.83648716e-06,8.38461105e-08,4.24137703e-09,0,0,0.0868671387,-0.029978944,1.11858153,0.729578257,1.02937567,0.0892058238,0,0.322273642,0.407304645,-0,1515,1951,1549,1216,11.8500004,10.75,21.6700001,0.319999993,0.469999999,0.540000021,0,0,1,0,0
2.764595,1783675216.706662,46,-2.82910776,-3.15208387,-11.5149193,0,0.051761318,0.00230494887,0.994594395,0.0937418789,0.112937003,0.0610835478,103.788002,992.261169,0,0.223000005,0.132781371,2.97912788,0.123586953,2.99719143,0.00919441879,-0.0180635452,0.99598819,1.00699997,-2.41000009,-2.5999999,-3,-0.200000003,0,0,3.0999999,3,2.5,8.68320512e-06,9.29517337e-05,-8.5430147e-05,8.74398776e-09,9.36023952e-08,0,0,0.0868671387,-0.029978944,1.11858153,0.729578257,1.02937567,0.0892058238,0,0.322273642,0.407304645,-0,1515,1951,1549,1216,11.8500004,10.75,21.6700001,0.319999993,0.469999999,0.540000021,0,0,1,0,0
2.827806,1783675216.769873,47,-2.82935357,-3.15291429,-11.5110569,0,0.0513601489,0.00292860344,0.994280696,0.102972679,0.203627467,0.0600793511,103.838005,992.087219,0,0.855000019,0.168761328,2.95700574,0.123195127,2.99644661,0.0455662012,-0.0394408703,0.99598819,1.00699997,-2.41000009,-2.5999999,-3,-0.200000003,0,0,3.0999999,3,2.5,5.60224071e-05,4.03826707e-05,-2.79235846e-05,5.64145637e-08,4.06653484e-08,0,0,0.0868671387,-0.029978944,1.11858153,0.729578257,1.02937567,0.0892058238,0,0.322273642,0.407304645,-0,1515,1951,1549,1216,11.8500004,10.75,21.6700001,0.319999993,0.469999999,0.540000021,0,0,1,0,0
2.890842,1783675216.832909,48,-2.82827401,-3.14997029,-11.5070477,0,0.0521557406,0.00306410366,0.994197786,0.123085432,0.164169073,0.0624235645,103.888008,992.087219,0,0.464000016,0.176584229,3.00297666,0.124246463,2.99921751,0.0523377657,0.00375914574,0.995964289,1.01300001,-2.41000009,-2.5999999,-3,-0.200000003,0,0,3.0999999,3,2.5,6.05964669e-05,1.55121097e-06,-6.46019034e-05,6.13842204e-08,1.57137681e-09,0,0,0.0868671387,-0.029978944,1.11858153,0.729578257,1.02937567,0.0892058238,0,0.322273642,0.407304645,-0,1515,1951,1549,1216,11.8500004,10.75,21.6700001,0.319999993,0.469999999,0.540000021,0,0,1,0,0
2.922846,1783675216.864912,49,-2.8310895,-3.15286088,-11.5031796,0,0.0521960445,0.00213067839,0.994847953,0.0988385826,0.213626266,0.0753436834,103.938004,992.087219,0,0.0890000015,0.122710913,3.00333977,0.121637464,2.9963119,0.00107344985,0.00702786446,0.995702565,1.079,-2.41000009,-2.5999999,-3,-0.200000003,0,0,3.0999999,3,2.5,0,0,0,0,0,0,0,0.0868671387,-0.029978944,1.11858153,0.729578257,1.02937567,0.0892058238,0,0.322273642,0.407304645,-0,1515,1951,1549,1216,11.8500004,10.75,21.6700001,0.319999993,0.469999999,0.540000021,0,0,1,0,0
2.985380,1783675216.927447,50,-2.83179116,-3.14692807,-11.4991531,0,0.0521971993,0.00260868855,0.995093048,0.0621392652,0.234876901,0.0985384062,103.988007,992.087219,0,0.708000004,0.150203541,3.00266457,0.120822459,3.00227332,0.0293810815,0.000391244888,0.995984197,1.00800002,-2.41000009,-2.5999999,-3,-0.200000003,0,0,3.0999999,3,2.5,1.65867805e-05,-8.37206881e-06,-4.42886376e-05,1.67194738e-08,-8.43904502e-09,0,0,0.0868671387,-0.029978944,1.11858153,0.729578257,1.02937567,0.0892058238,0,0.322273642,0.407304645,-0,1515,1951,1549,1216,11.8500004,10.75,21.6700001,0.319999993,0.469999999,0.540000021,0,0,1,0,0
3.062706,1783675217.004773,51,-2.83256936,-3.14215684,-11.4952602,0,0.0522426069,0.00290631037,0.994540095,0.141156703,0.0764370263,0.0648992062,104.038002,992.087219,0,0.265000015,0.167433009,3.00693727,0.119971953,3.00704646,0.0474610552,-0.000109195709,0.99598819,1.00699997,-2.41000009,-2.5999999,-3,-0.200000003,0,0,3.0999999,3,2.5,6.57320052e-05,-9.68097593e-05,-4.06837462e-05,6.61921291e-08,-9.74874226e-08,0,0,0.0868671387,-0.029978944,1.11858153,0.729578257,1.02937567,0.0892058238,0,0.322273642,0.407304645,-0,1515,1951,1549,1216,11.8500004,10.75,21.6700001,0.319999993,0.469999999,0.540000021,0,0,1,0,0
3.124309,1783675217.066375,52,-2.82889819,-3.14058876,-11.4912624,0,0.0526625402,0.00245321309,0.99385047,0.101680458,0.19893007,0.118281096,104.088005,992.225586,0,0.0920000076,0.141428173,3.03316545,0.123761266,3.00851345,0.0176669061,0.0246520042,0.995916784,1.02499998,-2.41000009,-2.5999999,-3,-0.200000003,0,0,3.0999999,3,2.5,0,0,0,0,0,0,0,0.0868671387,-0.029978944,1.11858153,0.729578257,1.02937567,0.0892058238,0,0.322273642,0.407304645,-0,1515,1951,1549,1216,11.8500004,10.75,21.6700001,0.319999993,0.469999999,0.540000021,0,0,1,0,0
3.156173,1783675217.098239,53,-2.82979083,-3.14149308,-11.4873714,0,0.050670702,0.00266444031,0.993884385,0.137276262,0.17022635,0.0549678579,104.138008,992.225586,0,0.547000051,0.153600171,2.91854405,0.122817323,3.0080688,0.0307828486,-0.0895247459,0.99598819,1.00699997,-2.41000009,-2.5999999,-3,-0.200000003,0,0,3.0999999,3,2.5,4.52202585e-05,0.000132078902,0.00011873246,4.5536801e-08,1.33003454e-07,0,0,0.0868671387,-0.029978944,1.11858153,0.729578257,1.02937567,0.0892058238,0,0.322273642,0.407304645,-0,1515,1951,1549,1216,11.8500004,10.75,21.6700001,0.319999993,0.469999999,0.540000021,0,0,1,0,0
3.219306,1783675217.161373,54,-2.83023453,-3.15174794,-11.4832306,0,0.0511228554,0.00272812368,0.995210111,0.0885160193,0.180200994,0.0672089159,104.188004,992.225586,0,0.144000009,0.15706189,2.94062567,0.122357912,2.99768376,0.0347039774,-0.0570580959,0.99598819,1.00699997,-2.41000009,-2.5999999,-3,-0.200000003,0,0,3.0999999,3,2.5,2.46262553e-05,-8.50964352e-06,-9.93919384e-05,2.47986378e-08,-8.56921112e-09,0,0,0.0868671387,-0.029978944,1.11858153,0.729578257,1.02937567,0.0892058238,0,0.322273642,0.407304645,-0,1515,1951,1549,1216,11.8500004,10.75,21.6700001,0.319999993,0.469999999,0.540000021,0,0,1,0,0
3.281925,1783675217.223991,55,-2.83013916,-3.15074158,-11.4792576,0,0.0509798974,0.00261364738,0.995160162,0.129457831,0.158235952,0.0740503222,104.238007,992.225586,0,0.749000013,0.150478914,2.93256497,0.122480139,2.99872661,0.0279987752,-0.0661616325,0.99598819,1.00699997,-2.41000009,-2.5999999,-3,-0.200000003,0,0,3.0999999,3,2.5,4.56511998e-06,-6.18182166e-05,-9.21249466e-06,4.59707561e-09,-6.22509404e-08,0,0,0.0868671387,-0.029978944,1.11858153,0.729578257,1.02937567,0.0892058238,0,0.322273642,0.407304645,-0,1515,1951,1549,1216,11.8500004,10.75,21.6700001,0.319999993,0.469999999,0.540000021,0,0,1,0,0
3.343464,1783675217.285531,56,-2.83134627,-3.16099882,-11.4748707,0,0.0509730242,0.00183649571,0.994615912,0.118255198,0.111208692,0.0836506933,104.288002,992.225586,0,0.316000015,0.105792932,2.93377709,0.12144807,2.98842263,-0.0156551376,-0.0546455383,0.996000051,1.00399995,-2.41000009,-2.5999999,-3,-0.200000003,0,0,3.0999999,3,2.5,9.53900817e-05,-4.01353464e-05,0.000169887557,9.57716395e-08,-4.02958875e-08,0,0,0.0868671387,-0.029978944,1.11858153,0.729578257,1.02937567,0.0892058238,0,0.322273642,0.407304645,-0,1515,1951,1549,1216,11.8500004,10.75,21.6700001,0.319999993,0.469999999,0.540000021,0,0,1,0,0
3.405556,1783675217.347622,57,-2.83201385,-3.17300153,-11.4705372,0,0.0500199459,0.00197193609,0.995507658,0.123718232,0.202409372,0.0686904192,104.338005,991.91333,0,0.0890000015,0.113493316,2.87644005,0.120748051,2.97661924,-0.00725473464,-0.100179195,0.995829523,1.04699993,-2.41000009,-2.5999999,-3,-0.200000003,0,0,3.0999999,3,2.5,0,0,0,0,0,0,0,0.0868671387,-0.029978944,1.11858153,0.729578257,1.02937567,0.0892058238,0,0.322273642,0.407304645,-0,1515,1951,1549,1216,11.8500004,10.75,21.6700001,0.319999993,0.469999999,0.540000021,0,0,1,0,0
3.483027,1783675217.425094,58,-2.83426023,-3.1719873,-11.4666882,0,0.0513535291,0.0029318647,0.994658053,0.0957174003,0.135130033,0.0888920501,104.388008,991.91333,0,0.593000054,0.168885157,2.95550561,0.11826805,2.97730303,0.0506171063,-0.0217974186,0.995984197,1.00800002,-2.41000009,-2.5999999,-3,-0.200000003,0,0,3.0999999,3,2.5,0.000118256808,-1.35994705e-05,0.000119133001,1.19202859e-07,-1.37082665e-08,0,0,0.0868671387,-0.029978944,1.11858153,0.729578257,1.02937567,0.0892058238,0,0.322273642,0.407304645,-0,1515,1951,1549,1216,11.8500004,10.75,21.6700001,0.319999993,0.469999999,0.540000021,0,0,1,0,0
3.514838,1783675217.456904,59,-2.83051443,-3.17662573,-11.4616623,0,0.0505648516,0.00289163506,0.994420409,0.150548294,0.120674841,0.103832245,104.438004,991.91333,0,0.134000003,0.166607618,2.91088891,0.12203826,2.97282553,0.0445693582,-0.0619366169,0.99598819,1.00699997,-2.41000009,-2.5999999,-3,-0.200000003,0,0,3.0999999,3,2.5,-1.9739271e-05,-4.01672014e-06,-6.28280686e-05,-1.98774455e-08,-4.04483691e-09,0,0,0.0868671387,-0.029978944,1.11858153,0.729578257,1.02937567,0.0892058238,0,0.322273642,0.407304645,-0,1515,1951,1549,1216,11.8500004,10.75,21.6700001,0.319999993,0.469999999,0.540000021,0,0,1,0,0
3.577157,1783675217.519224,60,-2.82930088,-3.17666149,-11.4574757,0,0.0514044389,0.00297488831,0.995298624,0.0921899974,0.23848632,0.0765767246,104.488007,991.91333,0,0.82100004,0.17125316,2.95652962,0.12323796,2.97260594,0.0480151996,-0.0160763264,0.995984197,1.00800002,-2.41000009,-2.5999999,-3,-0.200000003,0,0,3.0999999,3,2.5,0.000108661654,-8.62564957e-06,4.16564944e-05,1.09530944e-07,-8.69465477e-09,0,0,0.0868671387,-0.029978944,1.11858153,0.729578257,1.02937567,0.0892058238,0,0.322273642,0.407304645,-0,1515,1951,1549,1216,11.8500004,10.75,21.6700001,0.319999993,0.469999999,0.540000021,0,0,1,0,0
3.640683,1783675217.582750,61,-2.82776976,-3.17636967,-11.4533024,0,0.0504578985,0.00260861916,0.994865954,0.13049686,0.128902823,0.0920948386,104.538002,991.91333,0,0.362000018,0.150233835,2.90344596,0.124860078,2.97311258,0.0253737569,-0.0696666241,0.99598819,1.00699997,-2.41000009,-2.5999999,-3,-0.200000003,0,0,3.0999999,3,2.5,-4.44746038e-05,-0.000116329422,1.48773197e-05,-4.47859243e-08,-1.17143728e-07,0,0,0.0868671387,-0.029978944,1.11858153,0.729578257,1.02937567,0.0892058238,0,0.322273642,0.407304645,-0,1515,1951,1549,1216,11.8500004,10.75,21.6700001,0.319999993,0.469999999,0.540000021,0,0,1,0,0
3.672231,1783675217.614297,62,-2.82935286,-3.1784265,-11.4498177,0,0.0517606586,0.0022574882,0.994616866,0.105375759,0.149677828,0.0676558465,104.588005,992.379822,0,0.0930000022,0.130044356,2.97902322,0.123351276,2.97074223,0.00669308007,0.00828099251,0.995877028,1.03499997,-2.41000009,-2.5999999,-3,-0.200000003,0,0,3.0999999,3,2.5,0,0,0,0,0,0,0,0.0868671387,-0.029978944,1.11858153,0.729578257,1.02937567,0.0892058238,0,0.322273642,0.407304645,-0,1515,1951,1549,1216,11.8500004,10.75,21.6700001,0.319999993,0.469999999,0.540000021,0,0,1,0,0
3.735862,1783675217.677928,63,-2.83137083,-3.17329764,-11.4456081,0,0.0519186445,0.00278027728,0.994881868,0.104366161,0.113316461,0.102667674,104.638008,992.379822,0,0.602000058,0.160117239,2.98730111,0.121204577,2.97585917,0.0389126614,0.011441946,0.99598819,1.00699997,-2.41000009,-2.5999999,-3,-0.200000003,0,0,3.0999999,3,2.5,4.11844267e-05,-8.34465463e-05,-0.000164165496,4.14727168e-08,-8.4030674e-08,0,0,0.0868671387,-0.029978944,1.11858153,0.729578257,1.02937567,0.0892058238,0,0.322273642,0.407304645,-0,1515,1951,1549,1216,11.8500004,10.75,21.6700001,0.319999993,0.469999999,0.540000021,0,0,1,0,0
3.798059,1783675217.740125,64,-2.83159065,-3.168226,-11.4406376,0,0.0509384461,0.00218038331,0.995028257,0.0868665874,0.207019731,0.049620077,104.688004,992.379822,0,0.199000016,0.125550762,2.93057561,0.121123038,2.98118019,0.00442772359,-0.0506045818,0.995980263,1.00899994,-2.41000009,-2.5999999,-3,-0.200000003,0,0,3.0999999,3,2.5,2.66861935e-05,7.88256584e-05,7.03239493e-05,2.69263687e-08,7.95350914e-08,0,0,0.0868671387,-0.029978944,1.11858153,0.729578257,1.02937567,0.0892058238,0,0.322273642,0.407304645,-0,1515,1951,1549,1216,11.8500004,10.75,21.6700001,0.319999993,0.469999999,0.540000021,0,0,1,0,0
3.861361,1783675217.803428,65,-2.83079457,-3.16697192,-11.4365635,0,0.0516899563,0.00303628133,0.995304108,0.122530691,0.14922072,0.110700324,104.738007,992.379822,0,0.855000019,0.174786344,2.97290468,0.121723935,2.98226857,0.0530624092,-0.00936388969,0.995984197,1.00800002,-2.41000009,-2.5999999,-3,-0.200000003,0,0,3.0999999,3,2.5,-9.42027618e-05,1.14143641e-05,0.000120620731,-9.49563841e-08,1.15056791e-08,0,0,0.0868671387,-0.029978944,1.11858153,0.729578257,1.02937567,0.0892058238,0,0.322273642,0.407304645,-0,1515,1951,1549,1216,11.8500004,10.75,21.6700001,0.319999993,0.469999999,0.540000021,0,0,1,0,0
3.935045,1783675217.877112,66,-2.83333659,-3.16348052,-11.432436,0,0.0518221445,0.00230151834,0.995155394,0.0569279268,0.106510319,0.11461477,104.788002,992.379822,0,0.42900002,0.132509008,2.98094416,0.119342133,2.98574162,0.0131668746,-0.00479745865,0.995980263,1.00899994,-2.41000009,-2.5999999,-3,-0.200000003,0,0,3.0999999,3,2.5,-0.000147092345,-0.000149987463,-9.68742388e-05,-1.48416177e-07,-1.51337346e-07,0,0,0.0868671387,-0.029978944,1.11858153,0.729578257,1.02937567,0.0892058238,0,0.322273642,0.407304645,-0,1515,1951,1549,1216,11.8500004,10.75,21.6700001,0.319999993,0.469999999,0.540000021,0,0,1,0,0
3.970737,1783675217.912803,67,-2.82869196,-3.17132092,-11.4278545,0,0.0511174239,0.00322764437,0.994165421,0.0962408483,0.203727424,0.107681192,104.838005,992.320496,0,0.088000007,0.186015069,2.94339395,0.12377733,2.97802782,0.0622377396,-0.0346338749,0.995785773,1.05799997,-2.41000009,-2.5999999,-3,-0.200000003,0,0,3.0999999,3,2.5,0,0,0,0,0,0,0,0.0868671387,-0.029978944,1.11858153,0.729578257,1.02937567,0.0892058238,0,0.322273642,0.407304645,-0,1515,1951,1549,1216,11.8500004,10.75,21.6700001,0.319999993,0.469999999,0.540000021,0,0,1,0,0
4.033287,1783675217.975353,68,-2.83141565,-3.16861749,-11.4233742,0,0.0512201861,0.00326656154,0.994792879,0.103505284,0.187573969,0.0724989399,104.888008,992.320496,0,0.673000038,0.18813917,2.94744325,0.12104661,2.98071909,0.0670925602,-0.0332758427,0.995984197,1.00800002,-2.41000009,-2.5999999,-3,-0.200000003,0,0,3.0999999,3,2.5,-8.71396114e-05,-1.68170045e-05,3.6163332e-05,-8.78367246e-08,-1.69515406e-08,0,0,0.0868671387,-0.029978944,1.11858153,0.729578257,1.02937567,0.0892058238,0,0.322273642,0.407304645,-0,1515,1951,1549,1216,11.8500004,10.75,21.6700001,0.319999993,0.469999999,0.540000021,0,0,1,0,0
4.095362,1783675218.037428,69,-3.06632662,-3.29471445,-11.456213,0,0.0481927134,0.0254814457,0.972447276,-2.15432096,-3.36121058,-0.113963172,105.340004,993.096191,0,0.123000003,1.50100207,2.83618116,-0.120098531,2.85456204,1.62110066,-0.0183808804,0.99598819,1.00699997,-2.41000009,-2.5999999,-3,-0.200000003,0,0,3.0999999,3,2.5,0,0,0,0,0,0,0,0.0868671387,-0.029978944,1.11858153,0.729578257,1.02937567,0.0892058238,0,0.322273642,0.407304645,-0,1515,1951,1549,1216,11.8500004,10.75,21.6700001,0.319999993,0.469999999,0.540000021,0,0,1,0,0
4.158966,1783675218.101032,70,-2.77120924,-3.35110831,-11.4664288,0,0.0294845998,-0.00337857543,0.996634722,5.11005449,-2.33261824,-1.91663313,105.390007,993.096191,0,0.692000031,-0.194231018,1.69454348,0.183038935,2.80254841,-0.377269953,-1.10800493,0.995980263,1.00899994,-2.41000009,-2.5999999,-3,-0.200000003,0,0,3.0999999,3,2.5,0,0,0,0,0,0,0,0.0868671387,-0.029978944,1.11858153,0.729578257,1.02937567,0.0892058238,0,0.322273642,0.407304645,-0,1515,1951,1549,1216,11.8500004,10.75,21.6700001,0.319999993,0.469999999,0.540000021,0,0,1,0,0
4.190181,1783675218.132248,71,-2.88302279,-3.11727357,-11.4605751,0,0.038522739,0.00234295591,0.997845888,1.6864661,3.33781338,1.81114745,105.440002,993.096191,0,0.282000005,0.134531021,2.21085119,0.0694472641,3.03524303,0.065083757,-0.824391842,0.995980263,1.00899994,-2.41000009,-2.5999999,-3,-0.200000003,0,0,3.0999999,3,2.5,0,0,0,0,0,0,0,0.0868671387,-0.029978944,1.11858153,0.729578257,1.02937567,0.0892058238,0,0.322273642,0.407304645,-0,1515,1951,1549,1216,11.8500004,10.75,21.6700001,0.319999993,0.469999999,0.540000021,0,0,1,0,0
4.253741,1783675218.195808,72,-3.50703406,-3.40301228,-11.4565296,0,0.0206438452,-0.0483433418,0.997642279,0.112083748,-0.79329443,1.78620732,105.490005,993.096191,0,0.0890000015,-2.7742455,1.18404233,-0.545120835,2.75265145,-2.22912455,-1.56860912,0.995881081,1.03399992,-2.41000009,-2.5999999,-3,-0.200000003,0,0,3.0999999,3,2.5,0.00193973246,-0.00330506288,-0.000753765111,2.0056832e-06,-3.41743498e-06,0,0,0.0868671387,-0.029978944,1.11858153,0.729578257,1.02937567,0.0892058238,0,0.322273642,0.407304645,-0,1515,1951,1549,1216,11.8500004,10.75,21.6700001,0.319999993,0.469999999,0.540000021,0,0,1,0,0
4.317459,1783675218.259525,73,-3.50736427,-3.47097421,-11.4490585,0,0.00441911723,-0.0207478851,1.00585389,0.135788634,-1.59307456,3.79710054,105.540009,993.096191,0,0.495000035,-1.18168032,0.251668036,-0.552104235,2.6880126,-0.629576087,-2.43634462,0.995984197,1.00800002,-2.41000009,-2.5999999,-3,-0.200000003,0,0,3.0999999,3,2.5,0,0,0,0,0,0,0,0.0868671387,-0.029978944,1.11858153,0.729578257,1.02937567,0.0892058238,0,0.322273642,0.407304645,-0,1515,1951,1549,1216,11.8500004,10.75,21.6700001,0.319999993,0.469999999,0.540000021,0,0,1,0,0
4.363178,1783675218.305244,74,-3.43974662,-3.35148716,-11.4553261,0,0.0307109039,0.00574078644,0.997174084,-0.824123621,1.10518241,-0.97844094,105.590004,991.928589,0,0.136000007,0.329851329,1.76400495,-0.490311891,2.80188775,0.82016325,-1.0378828,0.995980263,1.00899994,-2.41000009,-2.5999999,-3,-0.200000003,0,0,3.0999999,3,2.5,-0.0121067353,-0.00893349387,-0.0119579863,-1.88470804e-05,-1.07987453e-05,0,0,6.63138462e-06,1.78484925e-06,7.85861557e-05,-1.91888066e-05,7.85819138e-05,4.24408642e-09,0,-1.91871295e-05,-1.67775838e-09,0,1416,1887,1546,1226,11.8500004,10.75,21.6700001,0.319999993,0.469999999,0.540000021,0,0,1,0,0
4.439075,1783675218.381142,75,-3.35619569,-3.29778457,-11.4348164,0,0.0510692075,-0.00111006014,0.992236078,-0.794076085,-2.84649825,1.11053634,105.640007,991.928589,0,0.709000051,-0.0640994012,2.9463439,-0.404831052,2.85103607,0.340731651,0.095307827,0.99598819,1.00699997,-2.41000009,-2.5999999,-3,-0.200000003,0,0,3.0999999,3,2.5,0.0740667507,-0.0531372167,-0.0788564309,0.00428518094,-0.000108009677,0,0,-0.00421059551,5.45005023e-05,-0.0499232188,-0.000584733265,-0.0498955585,-2.7660557e-05,-0,-0.000585880422,1.14716681e-06,0,1472,1888,1545,1231,11.8500004,10.75,21.6700001,0.319999993,0.469999999,0.540000021,0,0,1,0,0
4.501465,1783675218.443531,76,-3.28881717,-3.3793869,-11.4098167,0,0.0168057717,-0.0261871684,0.997769594,0.136095583,-0.541217327,-0.239366144,105.690002,991.928589,0,0.623000026,-1.50342321,0.964628935,-0.331369579,2.77710891,-1.17205358,-1.81247997,0.995976269,1.00999999,-2.41000009,-2.5999999,-3,-0.200000003,0,0,3.0999999,3,2.5,-0.010880514,0.00547957513,-0.081585899,0.0078663677,-0.00284152944,0,0,-0.0078773573,0.00284706382,-0.0934782922,-0.0306318123,-0.0933466852,-0.000131609268,-0,-0.0306059364,-2.58767541e-05,0,1447,1874,1545,1231,11.8500004,10.75,21.6700001,0.319999993,0.469999999,0.540000021,0,0,1,0,0
4.563344,1783675218.505411,77,-3.28896499,-3.39961958,-11.4079819,0,0.0469562039,0.0352229923,0.996060133,1.25580204,-1.02874815,-2.00502014,105.740005,991.928589,0,0.088000007,2.02526736,2.69735241,-0.344602466,2.7497685,2.36986971,-0.0524160862,0.996468544,0.885999978,-2.41000009,-2.5999999,-3,-0.200000003,0,0,3.0999999,3,2.5,0.0214980301,0.00347382016,-0.0715444833,0.00803373661,-0.00394767243,0,0,-0.00798951089,0.00398404012,-0.0949282572,-0.0429395959,-0.0946757048,-0.000252550817,-0,-0.0428284295,-0.000111165304,-0,1453,1855,1545,1228,11.8500004,10.75,21.6700001,0.319999993,0.469999999,0.540000021,0,0,1,0,0
4.593542,1783675218.535609,78,-3.24300528,-3.42453241,-11.4296227,0,-0.0194295831,0.0240629278,0.996776104,-0.639279068,-1.48096287,0.140915632,105.790009,991.928589,0,0.538000047,1.38289475,-1.1163671,-0.297066957,2.74026537,1.67996168,-3.85663247,0.995956361,1.0150001,-2.41000009,-2.5999999,-3,-0.200000003,0,0,3.0999999,3,2.5,-0.00771675259,-0.11058674,-0.0736523047,0.0102950456,-0.00416160049,0,0,-0.010302878,0.00404935516,-0.122488901,-0.0437426455,-0.12208911,-0.000399793993,-0,-0.0435305685,-0.000212078245,0,1449,1881,1545,1230,11.8500004,10.75,21.6700001,0.319999993,0.469999999,0.540000021,0,0,1,0,0
4.688358,1783675218.630425,79,-3.26848984,-3.49491763,-11.4497681,0,0.0274841338,-0.0482548103,1.00786877,0.0144768357,0.440211087,-0.25197953,105.840004,992.249268,0,0.445000023,-2.74111795,1.56025696,-0.305969447,2.6587007,-2.43514848,-1.09844375,0.995980263,1.00899994,-2.41000009,-2.5999999,-3,-0.200000003,0,0,3.0999999,3,2.5,-0.0354481451,0.0288812742,-0.135334536,0.0103932144,-0.00444948627,0,0,-0.0104289819,0.00447862735,-0.124147072,-0.0484547392,-0.123583436,-0.000563639973,0,-0.0481452458,-0.00030949412,0,1434,1883,1545,1229,11.8500004,10.75,21.6700001,0.319999993,0.469999999,0.540000021,0,0,1,0,0
4.719025,1783675218.661092,80,-3.15559888,-3.46863365,-11.4396954,0,0.0702864602,0.0348868892,1.00477064,-0.396448255,-0.308137417,-2.45793843,105.890007,992.249268,0,0.563000023,1.98858202,3.9990766,-0.213307202,2.6742878,2.20188928,1.32478881,0.995258629,1.19099998,-2.41000009,-2.5999999,-3,-0.200000003,0,0,3.0999999,3,2.5,-0.0150399115,-0.161029235,-0.0804930255,0.00983057171,-0.00651247893,0,0,-0.00984848384,0.00632069306,-0.117429242,-0.0683741644,-0.116704538,-0.000724699697,0,-0.0679474473,-0.000426719227,0,1460,1872,1547,1223,11.8500004,10.75,21.6700001,0.319999993,0.469999999,0.540000021,0,0,1,0,0
4.782834,1783675218.724901,81,-3.06000662,-3.43529606,-11.4290161,0,0.0440189391,0.0202586278,0.990350842,-0.894373834,-1.01536155,-1.68965125,105.940002,992.249268,0,0.612000048,1.17187965,2.54446602,-0.112432621,2.71458983,1.28431225,-0.170123816,0.995984197,1.00800002,-2.41000009,-2.5999999,-3,-0.200000003,0,0,3.0999999,3,2.5,-0.0632490814,-0.137077376,-0.138387814,0.00890422333,-0.0109723294,0,0,-0.00896797795,0.0108341556,-0.107144848,-0.117101558,-0.106270544,-0.000874302757,0,-0.11646717,-0.000634386612,0,1463,1879,1545,1231,11.8500004,10.75,21.6700001,0.319999993,0.469999999,0.540000021,0,0,1,0,0
4.844532,1783675218.786599,82,-3.18940353,-3.41281414,-11.4255428,0,0.105091542,-0.000445406884,1.0022676,0.800462902,1.44440889,2.41647267,105.990005,992.249268,0,0.074000001,-0.0254621953,5.98580551,-0.237224415,2.72788811,0.21176222,3.2579174,0.997390807,0.653999984,-2.41000009,-2.5999999,-3,-0.200000003,0,0,3.0999999,3,2.5,-0.0586449355,0.207138017,-0.0556112975,0.0098610688,-0.0100219315,0,0,-0.0100349365,0.0104591222,-0.119947426,-0.113342457,-0.118914001,-0.00103342324,0,-0.112435564,-0.000906894449,-0,1449,1859,1547,1222,11.8500004,10.75,21.6700001,0.319999993,0.469999999,0.540000021,0,0,1,0,0
4.905763,1783675218.847830,83,-3.26852465,-3.22355628,-11.4327965,0,0.0350606814,0.00769799948,0.99022913,-2.00894666,1.92192388,2.8768189,106.040009,992.249268,0,0.547000051,0.44540602,2.02774262,-0.318786114,2.92917705,0.764192104,-0.901434422,0.996083379,0.98300004,-2.41000009,-2.5999999,-3,-0.200000003,0,0,3.0999999,3,2.5,0.235184982,-0.0277546886,-0.0806288198,0.012811156,-0.00288936775,0,0,-0.0125799691,0.00286208489,-0.150268942,-0.0318197012,-0.149072632,-0.00119631446,-0,-0.0307674129,-0.00105228822,-0,1418,1899,1546,1228,11.8500004,10.75,21.6700001,0.319999993,0.469999999,0.540000021,0,0,1,0,0
4.967479,1783675218.909545,84,-3.23992729,-3.36263824,-11.408699,0,-0.102853522,-0.0278589707,0.982056201,-1.16165113,-5.847013,0.0209488869,106.090004,992.055603,0,0.134000003,-1.62493098,-5.97656441,-0.28179124,2.8219676,-1.34313977,-8.79853249,0.995976269,1.00999999,-2.41000009,-2.5999999,-3,-0.200000003,0,0,3.0999999,3,2.5,-0.221697941,-0.0723842755,-0.0805731714,0.015423133,-0.00277576828,0,0,-0.0156470481,0.00270266016,-0.186852306,-0.030159656,-0.185417533,-0.00143477775,0,-0.0290535968,-0.00110605918,0,1489,1899,1547,1223,11.8500004,10.75,21.6700001,0.319999993,0.469999999,0.540000021,0,0,1,0,0
4.998247,1783675218.940313,85,-3.21750855,-3.20362949,-11.4179974,0,0.077064544,0.0153960073,0.989432335,0.0593090653,6.70040751,3.67412186,106.140007,992.055603,0,0.729000032,0.891475856,4.4531045,-0.269536078,2.93936825,1.16101193,1.51373625,0.99590081,1.02900004,-2.41000009,-2.5999999,-3,-0.200000003,0,0,3.0999999,3,2.5,0.148049757,0.00241456833,-0.123698488,0.0172334854,-0.00414402829,0,0,-0.0170811415,0.00414651306,-0.204092756,-0.0457642041,-0.202411532,-0.00168121641,-0,-0.0445750169,-0.00118918845,-0,1385,1871,1543,1235,11.8500004,10.75,21.6700001,0.319999993,0.469999999,0.540000021,0,0,1,0,0
5.059131,1783675219.001197,86,-3.20065117,-3.23955154,-11.3926411,0,0.106091514,0.0551517867,0.973713696,-1.24612439,3.13540602,3.28028822,106.190002,992.055603,0,0.352000028,3.24180698,6.20829201,-0.26203236,2.89631152,3.50383925,3.31198049,0.995972216,1.01100004,-2.41000009,-2.5999999,-3,-0.200000003,0,0,3.0999999,3,2.5,0.104845509,-0.0340414271,-0.0422744304,0.0163902082,-0.00361404009,0,0,-0.0162842087,0.00357962423,-0.194925621,-0.0397683606,-0.192967877,-0.00195773947,-0,-0.0384809598,-0.0012874013,-0,1412,1886,1544,1233,11.8500004,10.75,21.6700001,0.319999993,0.469999999,0.540000021,0,0,1,0,0
5.120675,1783675219.062741,87,-3.22638583,-3.2884295,-11.3459473,0,-0.0962346569,-0.0410746783,1.00428617,-0.221961886,-4.19335604,-0.813599586,106.240005,992.055603,0,0.386000007,-2.34205627,-5.46905041,-0.266704321,2.88876176,-2.07535195,-8.35781193,0.996651232,0.839999974,-2.41000009,-2.5999999,-3,-0.200000003,0,0,3.0999999,3,2.5,-0.0950731784,0.0207414702,-0.106537752,0.0177362412,-0.00272330618,0,0,-0.0178282186,0.00274036615,-0.213489398,-0.0308229104,-0.211264402,-0.00222500088,-0,-0.0294589363,-0.00136397488,0,1367,1890,1542,1239,11.8500004,10.75,21.6700001,0.319999993,0.469999999,0.540000021,0,0,1,0,0
5.184489,1783675219.126555,88,-3.24155927,-3.27691984,-11.324152,0,0.163071647,0.0635577515,1.00170088,-0.744490743,2.34686327,2.10520792,106.290009,992.055603,0,0.543000042,3.63054061,9.22810173,-0.304881573,2.8462491,3.93542218,6.38185263,0.995920658,1.02400005,-2.41000009,-2.5999999,-3,-0.200000003,0,0,3.0999999,3,2.5,0.0581894368,0.0322618261,-0.0575916395,0.0173779577,-0.00176113844,0,0,-0.0173183717,0.00179417455,-0.207729146,-0.0207082592,-0.205222711,-0.00250643445,0,-0.0192873757,-0.00142088265,-0,1463,1880,1544,1235,11.8500004,10.75,21.6700001,0.319999993,0.469999999,0.540000021,0,0,1,0,0
5.247278,1783675219.189345,89,-3.27265477,-3.26790237,-11.3068409,0,0.0955063254,0.00761909783,0.998768687,-0.0664518178,-9.94149685,-0.0075724721,106.340004,992.016052,0,0.15200001,0.43707183,5.46208906,-0.322978258,2.87088442,0.760050058,2.59120464,0.995980263,1.00899994,-2.41000009,-2.5999999,-3,-0.200000003,0,0,3.0999999,3,2.5,-0.0195226595,0.07041049,-0.158652827,0.0185966939,-0.000816647778,0,0,-0.0186163913,0.000887691975,-0.22339651,-0.0109970942,-0.220604241,-0.00279226317,0,-0.00954268873,-0.00145440525,-0,1515,1874,1545,1230,11.8500004,10.75,21.6700001,0.319999993,0.469999999,0.540000021,0,0,1,0,0
5.308858,1783675219.250925,90,-3.26708317,-3.19472265,-11.2731609,0,0.130832896,0.0598704554,0.941291332,-0.410846889,-2.49784946,-2.95716643,106.390007,992.016052,0,0.246000007,3.63937235,7.8972578,-0.327035367,2.93862343,3.96640778,4.95863438,0.996802211,0.801999986,-2.41000009,-2.5999999,-3,-0.200000003,0,0,3.0999999,3,2.5,-0.00333368778,-0.00209610537,0.0562886149,0.0202404093,-0.000745687226,0,0,-0.0203104299,0.000791384198,-0.243789002,-0.00998219848,-0.240678608,-0.00311039295,0,-0.00850738026,-0.00147481868,-0,1515,1865,1549,1215,11.8500004,10.75,21.6700001,0.319999993,0.469999999,0.540000021,0,0,1,0,0
5.354029,1783675219.296096,91,-3.39244151,-3.19934535,-11.1612816,0,-0.0189112723,-0.0398549251,1.01898611,0.636282742,5.30754566,9.82095242,106.440002,992.016052,0,0.359000027,-2.23983002,-1.0624131,-0.432444781,2.96605086,-1.80738521,-4.02846384,0.995980263,1.00899994,-2.41000009,-2.5999999,-3,-0.200000003,0,0,3.0999999,3,2.5,0.00144857913,0.0507758036,0.00212623738,0.0193122067,0.00307357754,0,0,-0.0193107445,-0.00302234478,-0.232257351,0.0310349707,-0.228832334,-0.00342502166,-0,0.032490205,-0.0014552339,-0,1367,1887,1543,1238,11.8500004,10.75,21.6700001,0.319999993,0.469999999,0.540000021,0,0,1,0,0
5.416080,1783675219.358146,92,-3.48140407,-3.31987858,-11.0403862,0,0.11081247,0.103357524,0.943660557,-0.0513736606,-1.21785116,4.84462595,106.490005,992.016052,0,0.230000004,6.25059319,6.65801811,-0.546433866,2.81929302,6.79702711,3.83872509,0.997386873,0.654999971,-2.41000009,-2.5999999,-3,-0.200000003,0,0,3.0999999,3,2.5,-0.0834041238,0.0189312622,-0.0841487795,0.0166563336,0.00641422672,0,0,-0.0168904178,-0.00627596211,-0.203874812,0.0661253184,-0.200151458,-0.00372335641,0,0.0674665943,-0.00134127773,-0,1515,1867,1543,1238,11.8500004,10.75,21.6700001,0.319999993,0.469999999,0.540000021,0,0,1,0,0
5.476937,1783675219.419004,93,-3.56287098,-3.28072333,-10.9362354,0,0.0888317898,-0.0626425743,1.03417242,0.845302701,-0.938475966,3.90594149,106.540009,992.016052,0,0.886000037,-3.46632266,4.90051794,-0.598668873,2.8603189,-2.86765385,2.04019904,0.996000051,1.00399995,-2.41000009,-2.5999999,-3,-0.200000003,0,0,3.0999999,3,2.5,0.081239447,0.0517438799,-0.0326660872,0.0161337722,0.0084438147,0,0,-0.0160094053,-0.00835102424,-0.193689212,0.0886084959,-0.189711452,-0.00397776719,-0,0.0897735134,-0.00116501702,0,1426,1876,1541,1244,11.8500004,10.75,21.6700001,0.319999993,0.469999999,0.540000021,0,0,1,0,0
5.538836,1783675219.480903,94,-3.49027348,-3.31129932,-10.8515263,0,0.0043765069,-0.0142849535,0.986841261,0.901662767,1.22488165,0.869971037,106.590004,992.016052,0,0.175000012,-0.829323292,0.254070699,-0.536364138,2.84833169,-0.292959154,-2.59426093,0.995980263,1.00899994,-2.41000009,-2.5999999,-3,-0.200000003,0,0,3.0999999,3,2.5,-0.0974632129,-0.167596444,-0.0745534375,0.0171605609,0.00684810197,0,0,-0.0172589011,-0.00701720687,-0.208773211,0.0744669065,-0.20451799,-0.00425521983,0,0.0754349753,-0.000968065578,0,1397,1875,1542,1241,11.8500004,10.75,21.6700001,0.319999993,0.469999999,0.540000021,0,0,1,0,0
5.601166,1783675219.543233,95,-3.27100706,-3.3577559,-10.8018131,0,0.0434413403,0.0728292763,1.0141592,0.525032341,3.63507414,-1.18830371,106.640007,992.075378,0,0.252000004,4.10750008,2.44646335,-0.335040271,2.7927537,4.44254017,-0.34629035,0.996226311,0.946999967,-2.41000009,-2.5999999,-3,-0.200000003,0,0,3.0999999,3,2.5,-0.091369532,-0.286150038,-0.270189226,0.013505117,-0.00207952433,0,0,-0.0136920949,0.00153485069,-0.166753605,-0.0173956882,-0.162251323,-0.00450228341,0,-0.0164996441,-0.000896044949,0,1430,1857,1540,1245,11.8500004,10.75,21.6700001,0.319999993,0.469999999,0.540000021,0,0,1,0,0
5.632208,1783675219.574275,96,-3.24296665,-3.34563804,-10.6920738,0,0.0499363989,0.0269873645,1.04819393,3.00291586,2.07538843,4.95879269,106.690002,992.075378,0,0.377000004,1.47484207,2.72663045,-0.297366023,2.80387545,1.77220809,-0.077244997,0.995976269,1.00999999,-2.41000009,-2.5999999,-3,-0.200000003,0,0,3.0999999,3,2.5,-0.0902284607,-0.0244230889,-0.423011214,0.0112205679,-0.0100190565,0,0,-0.0113116987,0.00999438949,-0.138741776,-0.108495317,-0.134043634,-0.00469813589,0,-0.107439689,-0.00105562503,0,1419,1828,1536,1257,11.8500004,10.75,21.6700001,0.319999993,0.469999999,0.540000021,0,0,1,0,0
5.726535,1783675219.668602,97,-3.59549046,-3.32430148,-10.1117802,0,0.00354076922,0.0237359609,0.997812986,3.88378334,7.73968935,17.8510571,106.740005,992.075378,0,0.0870000049,1.36269426,0.203257427,-0.649384916,2.83356333,2.01207924,-2.63030601,0.996706903,0.825999975,-2.41000009,-2.5999999,-3,-0.200000003,0,0,3.0999999,3,2.5,-0.0154731562,0.197989747,-0.113308333,0.00839141943,-0.00461880863,0,0,-0.00839266926,0.00505568972,-0.104308382,-0.0555976033,-0.0994531363,-0.00485524302,0,-0.0543486662,-0.00124893757,-0,1489,1803,1520,1297,11.8500004,10.75,21.6700001,0.319999993,0.469999999,0.540000021,0,0,1,0,0
5.757608,1783675219.699675,98,-3.81057835,-3.13794518,-8.93488884,0,0.0149728432,0.0399605893,1.04329908,3.77557302,3.76214051,30.5104637,106.790009,992.075378,0,0.562000036,2.19347906,0.82161814,-0.870466948,3.02031398,3.06394601,-2.1986959,0.995881081,1.03399992,-2.41000009,-2.5999999,-3,-0.200000003,0,0,3.0999999,3,2.5,0.290253103,-0.0642154664,-0.30224362,0.0138429431,0.00223338348,0,0,-0.0135428216,-0.00229978235,-0.165500402,0.0234713536,-0.160482436,-0.00501796883,-0,0.02472266,-0.00125130697,0,1367,1822,1507,1322,11.8500004,10.75,21.6700001,0.319999993,0.469999999,0.540000021,0,0,1,0,0
